crimeid_UK_CSV0000000000006906,monthvalue_UK_CSV0000000000006906,reportedby,fallswithin,longitude,latitude,locationvalue,lsoacode,lsoaname,outcometype,crimeid_UK_CSV0000000000007151,monthvalue_UK_CSV0000000000007151
8dc0b4783d57f7994099c9532cc940f7cc2ba98a6f14d2b8a2015a23f7149377,2022-04,Northumbria Police,Northumbria Police,-1.57928,55.133836,On or near WARNHEAD ROAD,E01027519,Northumberland 020D,Investigation complete; no suspect identified,,
f72c1da12945ecc70701ed5935be47b5f3adb63fdb77be4aa8521ad8c409b6db,2022-04,Northumbria Police,Northumbria Police,-1.472594,55.080169,On or near MILLWAY,E01027417,Northumberland 030A,Suspect charged,,
b83369c86939e9baeb135adf871b76bc733d433e38482e487893ef8682b0fd96,2022-04,Northumbria Police,Northumbria Police,-1.543897,54.944936,On or near FOSSEFELD,E01008242,Gateshead 015D,Investigation complete; no suspect identified,,
b83369c86939e9baeb135adf871b76bc733d433e38482e487893ef8682b0fd96,2022-04,Northumbria Police,Northumbria Police,-1.451581,55.053298,On or near Parking Area,E01008546,North Tyneside 003C,Investigation complete; no suspect identified,,
c2365270c697b132c53fb7e908aa250529a9c9d219a9afe9e0210f428908d09f,2202-04,Northumbria Police,Northumbria Police,-1.546817,54.974017,On or near DUNCAN STREET,E01008429,Newcastle upon Tyne 028D,Investigation complete; no suspect identified,,
6ff0b1faf82304fe397b9730680bb4421eea532879a522e6969fd97bd9b800b0,2022-04,Northumbria Police,Northumbria Police,-1.617588,54.942512,On or near MARKET WAY,E01008259,Gateshead 007D,Investigation complete; no suspect identified,,
f72c1da12945ecc70701ed5935be47b5f3adb63fdb77be4aa8521ad8c409b6db,2022-04,Northumbria Police,Northumbria Police,-1.511916,54.981808,On or near WALSH AVENUE,E01008639,South Tyneside 009A,Investigation complete; no suspect identified,,
6c5cdd0073dc369a175e79d63ae2dfc4537566e69edb7645d157bcd0980479df,2022-04,Northumbria Police,Northumbria Polcie,-1.369426,54.892143,On or near CAIRO STREET,E01008259,Sunderland 016E,Investigation complete; no suspect identified,,
b83369c86939e9baeb135adf871b76bc733d433e38482e487893ef8682b0fd96,2022-0g4,Northumbria Police,Norqthumbria Police,-1.548334,54.881895,On or near ALWIN,E01027417,Sunderland 025G,Investigation complete; no suspect identified,,
01026c4d315be204b3bdbc13402041b355a84ea864bc4c8009c3e10056b1d68e,2022-04,Northumbria Police,Northumbria Poliice,-1.533918,55.129951,On or near COWLEY PLACE,E01008429,Northumberland 022A,Investigation complete; no suspect identified,,
1b37ed5f2763e3115900456459912a7c268c4e181f216b7b4c4d8ef6ab9c20b7,2022-04,Northumbria Police,Northumbria Police,-1.615435,54.971836,On or near Nightclub,E01027417,Newcastle upon Tyne 024G,Suspect charged,,
becbbd18d60ac910efbc4e2caee9c473005788446bac34615f1c6ad1f488a3e1,2022-04,Northumbria Police,Northumbria Police,-1.387978,54.903462,On or near ALBION PLACE,E01008831,Sunderland 013D,Offender given a caution,,
2f28ad1c2acc3f1056a46a9f28fae19463899e1288abbd18d8c417cd1dcdabb3,2022-04,Northumbria Police,Northumbria Police,-1.621161,54.969293,On or near WATERLOO STREET,E01008831,Newcastle upon Tyne 024I,Investigation complete; no suspect identified,,
235366b3274659109506347e42ad64ebbb95c1d15764e02c2b9ff9060592ebbf,2022-04,Northumbria Police,Northumbria Police,-1.647873,55.013765,On or near BRUNTON GROVE,E01008338,Newcastle upon Tyne 003C,Investigation complete; no suspect identifgied,,
d278d16d3e5227431b71ec14f54a2180df24325a4616d19c1f879b9b38a4b1ae,2022-04,Northumbria Police,Northumbria Police,-1.567464,55.221417,On or near THE ELMS,E01008259,Northumberland 008D,Investigation complete; no hsuspect identified,,
6c5cdd0073dc369a175e79d63ae2dfc4537566e69edb7645d157bcd0980479df,2022-04,Northumbria Police,oNrthumbria Police,-1.716828,55.411516,On or near CEDAR GROVE,E01027417,Northumberland 005B,Investigation complete; no suspect identified,,
f72c1da12945ecc70701ed5935be47b5f3adb63fdb77be4aa8521ad8c409b6db,2022-04,Nortuhmbria Police,Northumbria Police,-1.616875,54.955135,On or near DERWENTWATER ROAD,E01008546,Gateshead 008C,Investigation complete; no suspect identified,,
01026c4d315be204b3bdbc13402041b355a84ea864bc4c8009c3e10056b1d68e,2022-04,Northumbria Police,Northumbria Police,-1.616875,54.955135,On or near DERWENTWATER ROAD,E01008170,Gateshead 008C,Investigation complete; no suspect identified,,
6ff0b1faf82304fe397b9730680bb4421eea532879a522e6969fd97bd9b800b0,2022-04,Northumbria Police,Northumbria Police,-1.616875,54.955135,On or near DERWENTWATER ROAD,E01008170,Gateshead 008C,Investigation complete; no suspect identified,,
62bc86b1d20f99b9279a02d4678c38c36fa46ea5f708628723442d586197aa43,2022-04,Northumbria Police,Northumbria Police,-1.616875,54.955135,On or near DERWENTWATER ROAD,E01008170,Gateshead 008C,Investigation complete; no suspect identified,,
6c5cdd0073dc369a175e79d63ae2dfc4537566e69edb7645d157bcd0980479df,2022-04,Northumbria Police,Northumbria Police,-1.410948,54.964494,On or near THE RIDGEWAY,E01008242,South Tyneside 013A,Investigation complete; no suspect identified,,
1b37ed5f2763e3115900456459912a7c268c4e181f216b7b4c4d8ef6ab9c20b7,2022-04,Northumbria Police,Northumbria Police,-1.45894,55.02408,On or near PEVENSEY CLOSE,E01008556,North Tyneside 013C,Investigation complete; no suspect identified,,
4ea6848d9fe87bc68c978e27be9338b19c1b2e61db3637ea7465ea395a28e4f0,2022-04,Northumbria Police,Northumbria Police,-1.544015,54.970331,On or near Pedestrian Subway,E01008425,Newcastle upon Tyne 030B,Investigation compltee; no suspect identified,,
b83369c86939e9baeb135adf871b76bc733d433e38482e487893ef8682b0fd96,2022-04,Northumbria Police,Northumbria Police,-1.563189,55.182618,On or near HAWTHORN ROAD,E01008639,Northumberland 010C,Investigation complete; no suspect identified,,
a9ab878db3664172a20d1cd90681ea39ec66790b411dddfefce800cc98c66a63,2022-04,Northumbria Police,Northumbria Police,-1.563189,55.182618,On or near HAWTHORN ROAD,E01027539,Northumberland 010C,Investigation complete; no suspect identified,,
a9ab878db3664172a20d1cd90681ea39ec66790b411dddfefce800cc98c66a63,2022-04,Northummbria Police,Northumbria Police,-1.559779,54.950098,On or near MAREBURN CRESCENT,E01008216,Gateshead 012C,Investigation complete; no suspect identified,,
6ff0b1faf82304fe397b9730680bb4421eea532879a522e6969fd97bd9b800b0,2022-04,Northumbria Police,Northumrbia Police,-1.384046,54.907719,On or nea rShopping Area,E01008546,Sunderland 013B,Investigation complete; no suspect identified,,
62bc86b1d20f99b9279a02d4678c38c36fa46ea5f708628723442d586197aa43,2022-04,Northumbria Police,Northumbria Police,-1.3893,54.914054,On or near Sports/Recreation Area,E01008711,Sunderland 005D,Investigation complete; no suspect identified,,
58fd1a63e037ca6c5420e04d25ab31f7a3f2eb898b23b35fb5993adf827f60d8,2022-04,Northumbria Police,Northumbria Police,-1.3893,54.914054,On or near Sports/Recreation Area,E01008546,Sunderland 005D,Investigation complete; no suspect identified,,
4ea6848d9fe87bc68c978e27be9338b19c1b2e61db3637ea7465ea395a28e4f0,2022-04,Northumbria Police,Northumbria Poliec,-1.508234,55.186992,On or near Parking Area,E01027542,Northumberland 009B,Investigation complqete; no suspect identified,,
ac40f498d09480a76d8c064b65a24875c6c4e395ecb77fe3e75634db5eeba4b8,2022-04,Northumbria Police,Northumbria Police,-1.663336,54.993527,On or near CROSSBROOK ROAD,E01008300,Newcastle upon Tyne 016A,Investigation complete; no suspect identified,,
6c5cdd0073dc369a175e79d63ae2dfc4537566e69edb7645d157bcd0980479df,0222-04,Northumbria Police,Northumbria Police,-1.562612,55.024218,On or near DELAVAL COURT,E01008639,North Tyneside 012A,Investigation complete; no suspect identified,,
235366b3274659109506347e42ad64ebbb95c1d15764e02c2b9ff9060592ebbf,2022-04,Northumbria Police,Northumbria Police,-1.401391,54.90759,On or near CLOSE STREET,E01027417,Sunderland 011C,Suspect charged,,
2f78d6311b329d53e7e7685f8cd7839cd1863ed33f0468120034bfec298df4d7,2022-04,Northumbria Police,Northumbria Police,-1.685123,54.973762,On or near ALDWICK ROAD,E01033547,Gateshead 008C,Investigation complete; no suspect identified,,
f72c1da12945ecc70701ed5935be47b5f3adb63fdb77be4aa8521ad8c409b6db,2022-04,Northumbria Police,Northumbria Police,-1.460197,54.824264,On or near LINCOLN CRESCENT,E01008748,South Tyneside 009A,Investigation complete; no suspect identified,,
ac40f498d09480a76d8c064b65a24875c6c4e395ecb77fe3e75634db5eeba4b8,2022-04,Northumbria Poliec,Northumbria Police,-1.668555,54.957641,On or near Shopping Area,E01027539,Gateshead 009A,Investigation complete; no suspect identified,,
fd15e86f920e5133b43919e181a6cef71f07bf04b1bf282b1732d2d33b3533c8,2022-04,Northumbria Police,Northumbria Police,-1.585454,55.087408,On or near WEST FARM COURT,E01008546,Northumberland 029B,Investigation complete; no suspect identified,,
f72c1da12945ecc70701ed5935be47b5f3adb63fdb77be4aa8521ad8c409b6db,2022-04,Northumbria Police,Northumbria Police,-1.583433,54.947117,On or near GAINSBOROUGH CRESCENT,E01008202,Northumberland 030A,Investigation complete; no suspect identified,,
58fd1a63e037ca6c5420e04d25ab31f7a3f2eb898b23b35fb5993adf827f60d8,202-04,Northumbria Police,Northumbria Police,-1.412287,54.897327,On or near CLEVELAND ROAD,E01008259,Sunderland 015C,Suspect charged,,
12b9244c80daf9164163573a529e4e37bf83db49a540edd5e7d69e05a843ad0c,2022-04,Northumbria Police,Northumbria Police,-1.689742,55.168844,On or near Parking Area,E01027453,Newcastle upon Tyne 030B,Investigation complete; no suspect identified,,
ac40f498d09480a76d8c064b65a24875c6c4e395ecb77fe3e75634db5eeba4b8,2022-04,Northumbria Police,Northumbria Police,-1.463994,54.930088,On or near BOSTON CRESCENT,E01008170,Sunderland 003E,Offender given a caution,,
6ff0b1faf82304fe397b9730680bb4421eea532879a522e6969fd97bd9b800b0,2022-04,Northumbria Police,Northumbria Police,-1.37058,54.901117,On or near FINCHALE CLOSE,E01008338,Sunderland 016C,Suspect charged,,
01026c4d315be204b3bdbc13402041b355a84ea864bc4c8009c3e10056b1d68e,2022-04,Northumbria Police,Northumbria Police,-1.56258,54.978352,On ornear ORPINGTON AVENUE,E01008216,Newcastle upon Tyne 026E,Investigation complete; no suspect identified,,
2f28ad1c2acc3f1056a46a9f28fae19463899e1288abbd18d8c417cd1dcdabb3,2022-04,Northumbria Police,Northumbria Police,-1.441682,54.943323,On or near DIPE LANE,E01027542,South Tyneside 023C,Offender given a caution,,
6ff0b1faf82304fe397b9730680bb4421eea532879a522e6969fd97bd9b800b0,2022-04,Northumbria Police,Northumbria Police,-1.71222,54.944066,On or near NOEL TERRACE,E01008276,Gateshead 007D,Investigation complete; no suspect identified,,
12b9244c80daf9164163573a529e4e37bf83db49a540edd5e7d69e05a843ad0c,2022-04,Northumbria Police,Northumbria Polce,-1.599994,54.972532,On or near BLAGDON STREET,E01033553,Newcastle upon Tyne 023H,Investigation complete; no suspect identified,,
c2365270c697b132c53fb7e908aa250529a9c9d219a9afe9e0210f428908d09f,2022-04,Northumbria Polce,Northumbria Police,-1.461762,55.003775,On or near MALTON CRESCENT,E01008170,North Tyneside 023D,Offender given a caution,,
c2365270c697b132c53fb7e908aa250529a9c9d219a9afe9e0210f428908d09f,2022-04,Northumbria Police,Northumbria Police,-1.480824,54.848223,On or near LITTLEBURN CLOSE,E01008831,Sunderland 033D,Investigation complete; no suspect identified,,
c2365270c697b132c53fb7e908aa250529a9c9d219a9afe9e0210f428908d09f,2022-04,Northumbria Police,Northumbria Police,-1.601804,54.961701,On or near JACKSON STREET,E01008300,Gateshead 027C,Investigation complete; no suspect identified,,
ac40f498d09480a76d8c064b65a24875c6c4e395ecb77fe3e75634db5eeba4b8,2022-04,Northumbria Police,Northumbria Police,-1.601804,54.961701,On or near JACKSON STREET,E01008166,Gateshead 027C,Investigation complete; no suspect identified,,
b83369c86939e9baeb135adf871b76bc733d433e38482e487893ef8682b0fd96,2022-04,Northumbria Police,Northumbria Police,-1.597964,54.955209,On or near Petrol Station,E01008163,Gateshead 028A,Investigation complete; noo suspect identified,,
6c5cdd0073dc369a175e79d63ae2dfc4537566e69edb7645d157bcd0980479df,2022-04,Northumbria Police,Northumbria Police,-1.597964,54.955209,On or near Petrol Station,E01008163,Grateshead 028A,Investigation complete; no suspect identified,,
2928e3e746b6781dc73a6a0b8ab84c4ba3cd3fd824ee14df6777feeb96e0722e,2022-04,Northumbria Police,Northumbria Police,-1.641119,54.971537,On or near MILL LANE,E01008170,Newcastle upon Tyne 029A,Investigation complete; no suspect identfified,,
58fd1a63e037ca6c5420e04d25ab31f7a3f2eb898b23b35fb5993adf827f60d8,2022-04,Northumbria Police,Northumbria Police,-1.562126,54.932395,On or near AYCLIFFE CRESCENT,E01008429,Gateshead 021E,Investigation complete; no suspect identified,,
f72c1da12945ecc70701ed5935be47b5f3adb63fdb77be4aa8521ad8c409b6db,2022-04,Northumbria Police,Northumbria Police,-1.700256,54.991179,On or near ALLERWASH,E01008556,Newcastle upon Tyne 015B,Investigation complete; no suspect identified,,
235366b3274659109506347e42ad64ebbb95c1d15764e02c2b9ff9060592ebbf,2022-04,Northumbria Police,Northumbria Police,-1.59419,54.919071,On or near WOODFORD,E01027417,Gateshead 025C,Investigation complete; no suspect identified,,
01026c4d315be204b3bdbc13402041b355a84ea864bc4c8009c3e10056b1d68e,2022-0d4,Northumbria Ploice,Northumbria Police,-1.616515,54.981518,On or near CLAREMONT ROAD,E01008546,Newcastle upon Tyne 024B,Investigation complete; no suspect identified,,
6ff0b1faf82304fe397b9730680bb4421eea532879a522e6969fd97bd9b800b0,2022-04,Northumbria Police,Northumbria Police,-1.640659,54.954875,On or near SEYMOUR STREET,E01008210,Gateshead 007B,Investigation complete; no suslpect identified,,
f72c1da12945ecc70701ed5935be47b5f3adb63fdb77be4aa8521ad8c409b6db,2022-04,Northumbria Police,Northumbria Police,-1.373086,54.897365,On or near ATHOL TERRACE,E01008338,Sunderland 016B,Investigation complete; no suspect identified,,
e0338c2819a995e1ec764fcee98fb8faef30848f57e55377a36631bbe546e1a0,022-04,Northumbria Police,Northumbria Police,-1.384684,54.905782,On or near Parking Area,E01008703,North Tyneside 003C,Investigation complete; no suspect identified,,
ac40f498d09480a76d8c064b65a24875c6c4e395ecb77fe3e75634db5eeba4b8,2022-04,Northumbria Police,Northumbria Police,-1.375543,54.908871,On or near RUSSELL STREET,E01008703,North Tyneside 003C,Investigation complete; no suspect identified,,
58fd1a63e037ca6c5420e04d25ab31f7a3f2eb898b23b35fb5993adf827f60d8,2022-04,Northumbria Police,Northumbria Police,-1.666887,54.972491,On or near BENWELL LANE,E01008289,Northumberland 030A,Investigation complete; no suspect identified,,
9987f095bef6845168544464b1f872914bc89399b395e2230af76569a29a83eb,2022-04,Northumbria Police,Nortohumbria Police,-1.666887,54.972491,On or nar BENWELL LANE,E01008289,Newcastle upon Tyne 027B,Investigation complete; no suspect identified,,
b83369c86939e9baeb135adf871b76bc733d433e38482e487893ef8682b0fd96,2022-04,Northumbria Police,Northumbria Police,-1.666887,54.972491,On or near BENWELL LANE,E01008429,Newcastle upon Tyne 027B,Investigation complete; no suspect identified,,
9987f095bef6845168544464b1f872914bc89399b395e2230af76569a29a83eb,2022-04,orthumbria Police,Northumbria Police,93.333113,54.972491,On or near BENWELL LANE,E00108289,Newcastle upon Tyne 02B7,Investigation complete; no suspect identified,,
1b37ed5f2763e3115900456459912a7c268c4e181f216b7b4c4d8ef6ab9c20b7,2022-04,Northumrbia Police,Norhumbria Police,-1.410155,54.874599,On oru near CROSSWAYS,E01008802,Newcastle upon Tyne 028D,Investigation complete; no suspect hidentified,,
f72c1da12945ecc70701ed5935be47b5f3adb63fdb77be4aa8521ad8c409b6db,2022-l04,Northumbria Police,Northumbria Police,-1.694852,54.986511,On or near LANGLEY ROAD,E01008216,Newcastle upon Tyne 015G,Suspyect charged,,
235366b3274659109506347e42ad64ebbb95c1d15764e02c2b9ff9060592ebbf,2022-04,Northumbria Police,Northumbria Police,-1.575087,54.98643,On or near SIMONSID ETERRACE,E01027542,Newcastle upon Tyne 018D,Investigation complete; no suspect identified,,
01026c4d315be204b3bdbc13402041b355a84ea864bc4c8009c3e10056b1d68e,2022-04,Northumbria Police,Northumbira Police,-1.57722,54.987202,On or near CHILLINGHAM ROAD,E01027417,Newcastle upon Tyne 018D,Investigation complete; no suspect identified,,
d278d16d3e5227431b71ec14f54a2180df24325a4616d19c1f879b9b38a4b1ae,2022-04,Northumbria Police,Northumbria Police,-1.582656,54.982952,On or near TINTERN CRESCENT,E01008170,Newcastle upon Tyne 023E,Investigation complete; no suspect identified,,
62bc86b1d20f99b9279a02d4678c38c36fa46ea5f708628723442d586197aa43,2022-04,Northumbria Police,Northumbria Police,-1.400713,54.897585,On or near HURSTWOOD ROAD,E01027539,Sunderland 018B,Investigation complete; no suspect identified,,
2f78d6311b329d53e7e7685f8cd7839cd1863ed33f0468120034bfec298df4d7,2022-04,Northumbria Police,Northumbria Police,-1.548675,54.937809,On or near RENNINGTON,E01008242,Gateshead 015F,Investigation complete; no suspect identified,,
6ff0b1faf82304fe397b9730680bb4421eea532879a522e6969fd97bd9b800b0,2022-04,Northumbria Police,Northumbria Police,-1.440092,54.930843,On or near KENYA ROAD,E01008839,Newcastle upon Tyne 024H,Investigation complete; no suspect identified,,
92c800b5115743afa8897ca94b4b772505ad42629230951b444d7fd341b8f395,2022-04,Northumbria Police,Northumbria Police,-1.367932,54.924819,On or near RAVINE TERRACE,E01008242,Sunderland 002E,Suspect charged,,
2f28ad1c2acc3f1056a46a9f28fae19463899e1288abbd18d8c417cd1dcdabb3,2022-04,Northumbria Police,Northumbria Police,-1.591674,54.9581,On or near SHELLEY DRIVE,E01008162,Gateshead 027A,Offender given a caution,,
6c5cdd0073dc369a175e79d63ae2dfc4537566e69edb7645d157bcd0980479df,2022-04,Northumbria Police,Northumbria Police,-1.61712,54.978617,On or near EDWARD'S WALK,E01008397,Newcastle upon Tyne 024C,Suspect charged,,
becbbd18d60ac910efbc4e2caee9c473005788446bac34615f1c6ad1f488a3e1,2022-04,Northumbria Police,Northumbria Police,-1.5881,54.979277,On or near BOLINGBROKE STREET,E01008413,Newcastle upon Tyne 023F,Investigation complete; no suspect identified,,
f72c1da12945ecc70701ed5935be47b5f3adb63fdb77be4aa8521ad8c409b6db,2022-04,Northumbria Police,Northumbria Police,-1.598994,54.971055,O nor near THE SWIRLE,E01008711,Newcastle upon Tyne 023G,Investigation complete; no suspect identified,,
f72c1da12945ecc70701ed5935be47b5f3adb63fdb77be4aa8521ad8c409b6db,2022-04,Northumbria Police,Northumbria Police,-1.500453,54.976271,On or enar GLADSTONE STREET,E01008654,Gateshead 008C,Offender given a caution,,
d2d79084528fb5a07ad52dc8f99af52e1175ea8685184a2848b81715e1209f0c,2022-04,Northumbria Police,Northumbria Police,-1.618321,54.970578,On or near FENKLE STREET,E01008546,Newcastle upon Tyne 024G,Investigation complete; no suspect identified,,
6ff0b1faf82304fe397b9730680bb4421eea532879a522e6969fd97bd9b800b0,2022-04,Northumbria Police,Northumbria Police,-1.706233,54.99885,On or near HILLHEAuD ROAD,E01027417,Newcastle upon Tyne 031C,Investigation complete; no suspect identified,,
8c800f00e67485321dd0eb2b773b842e7ba1f8b7b64f1e8a520cb07bfbc6a067,2022-04,Northumbria Police,Northumbria Police,-1.412945,54.971082,On or near FERNDALE,E01033074,Northumberland 023B,Investigation complete; no supsect identified,,
1b37ed5f2763e3115900456459912a7c268c4e181f216b7b4c4d8ef6ab9c20b7,20220-4,Northumbria Poliec,Northumbria Police,-1.518533,55.011247,On or near ASCOT CLOSE,E01008242,North Tyneside 024B,Investigation complete; no suspect identified,,
4ea6848d9fe87bc68c978e27be9338b19c1b2e61db3637ea7465ea395a28e4f0,2022-40,Northumbria Police,Northumbria Police,-1.520282,55.182978,On or near CLEVELAND AVENUE,E01008546,Northumberland 009C,Investigation complete; no suspect idenytified,,
b83369c86939e9baeb135adf871b76bc733d433e38482e487893ef8682b0fd96,2022-04,Northumbria Police,Northumbria Polce,-1.520282,55.182978,On or near CLEVELAND AVENUE,E01027543,Gateshead 008C,Investigation complete;n o suspect identified,,
bae5ae05e33af4c79ae2c269bab77a7fa66f5f303818cc63e0409c56ceb440b1,2022-04,Northumbria Police,Northumbriaz Police,-1.575102,54.958384,On or near COACH ROAD GREEN,E01008214,Gateshead 003A,Investigation complete; no suspect identified,,
235366b3274659109506347e42ad64ebbb95c1d15764e02c2b9ff9060592ebbf,2022-04,Northumbria Police,Northumbria Police,-1.386217,54.900361,On or near ARGYLE SQUARE,E01008831,Newcastle upon Tyne 030B,Investigation complete; no suspect identified,,
becbbd18d60ac910efbc4e2caee9c473005788446bac34615f1c6ad1f488a3e1,2022-04,Northumbria Police,Northumbria Police,-1.640045,54.943164,On or near RAYLEES GARDENS,E01008206,Gateshead 007B,Investigation complete; no suspect identified,,
1b37ed5f2763e3115900456459912a7c268c4e181f216b7b4c4d8ef6ab9c20b7,2022-04,Northumbria Police,Northumbria Police,-1.565207,54.894187,On or near PORTMEADS ROAD,E01008425,Gateshead 026C,Investigation complete; no suspect identified,,
b83369c86939e9baeb135adf871b76bc733d433e38482e487893ef8682b0fd96,2022-04,Northumbria Police,Nrothumbria Police,-1.559423,54.966937,On or near WIGMORE AVENUE,E01008170,Newcastle upon Tyne 030A,Investigation complete; no suspect identified,,
f72c1da12945ecc70701ed5935be47b5f3adb63fdb77be4aa8521ad8c409b6db,2022-04,Northumbria Police,Northumbria Police,-1.384538,54.870347,On or near RAVENSWORTH,E01008831,Sunderland 031B,Offender given a caution,,
4ea6848d9fe87bc68c978e27be9338b19c1b2e61db3637ea7465ea395a28e4f0,2022-04,Northumbria Police,Northumbria Police,-1.581725,54.9567,On or near OLD FOLD ROAD,E01008711,Gateshead 027A,Investigation complete; no suspect identified,,
1b37ed5f2763e3115900456459912a7c268c4e181f216b7b4c4d8ef6ab9c20b7,2022-04,Northumbria Police,Northumbria Police,-1.581725,54.9567,On or near OLD FOLD ROAD,E01008546,Gateshead 027A,Investigation complete; no suspect identified,,
2928e3e746b6781dc73a6a0b8ab84c4ba3cd3fd824ee14df6777feeb96e0722e,2022-04,Northumbria Police,Northumbria Police,-1.581725,54.9567,On or near OLD FOLD ROAD,E01008162,Gateshead 027A,Investigation complete; no suspect identified,,
2928e3e746b6781dc73a6a0b8ab84c4ba3cd3fd824ee14df6777feeb96e0722e,202204,Northumbria Police,Northumbria Police,25.418275,54.9567,On or near OLD FOLD ROAD,E0100812,Gateshaed 027A,Investigation complete; no suspect identified,,
4ea6848d9fe87bc68c978e27be9338b19c1b2e61db3637ea7465ea395a28e4f0,202-204,Northumbria Police,Northumbria Police,-1.364035,54.882023,On or near RYHOPE ROAD,E01027542,Sunderland 024C,Suspect charged,,
2f28ad1c2acc3f1056a46a9f28fae19463899e1288abbd18d8c417cd1dcdabb3,2022-04,Northumbria Police,Northumbria Police,-1.423543,55.017538,On or near FRONT STREET,E01008560,North Tyneside 016B,Investigation complete; no suspect identified,,
2f28ad1c2acc3f1056a46a9f28fae19463899e1288abbd18d8c417cd1dcdabb3,2022-04,Northumbria Police,Northumbria Police,-1.423543,55.017538,On or near FRONT STREET,E01008560,Gateshead 008C,Investigation complete; no suspect identified,,
d2d79084528fb5a07ad52dc8f99af52e1175ea8685184a2848b81715e1209f0c,2022-04,Northumbria Police,Northumbria Police,-1.477891,54.949936,On or near MEADOW VIEW,E01008546,South Tyneside 020D,Suspect charged,,
2f28ad1c2acc3f1056a46a9f28fae19463899e1288abbd18d8c417cd1dcdabb3,2022-04,Northumbria Police,Northumbria Police,-1.537965,54.999352,On or near REID AVENUE,E01027539,North Tyneside 029C,Investigation complete; no suspect identified,,
e2a8e0ce75cb2f1544cec9a24f578d519434d4fbd9c09892d767b27a7d99edfa,0222-04,Northumbria Police,Northumbria Police,-1.432057,54.99939,On or near STANHOPE STREET,E01008639,South Tyneside 001B,Investigation complete; no suspect identified,,
235366b3274659109506347e42ad64ebbb95c1d15764e02c2b9ff9060592ebbf,2022-04,Northumbria Police,Northumbria Police,-1.429923,54.964647,On or near MANET GARDENS,E01008556,South Tyneside 019E,Investigation complete; no suspect identified,,
24d860ae592931a621b533e3e73e1d4e9aea180bac40f83905d689d446436534,2022-04,Northumbria Police,Northumbria Police,-1.430237,54.986549,On or near Supermarket,E01008668,Gateshead 028A,Investigation complete; no suspect identified,,
f72c1da12945ecc70701ed5935be47b5f3adb63fdb77be4aa8521ad8c409b6db,2022-04,Northumbria Police,Northumbria Police,-1.386034,54.90418,On or near VINE PLACE,E01008170,Sunderland 013B,Investigation complete; no suspect identified,,
b83369c86939e9baeb135adf871b76bc733d433e38482e487893ef8682b0fd96,2022-04,Northumbria Police,Northumbria Police,-1.496693,54.877082,On or near LANGDALE ROAD,E01008800,Northumberland 009B,Investigation complete; no suspect identified,,
235366b3274659109506347e42ad64ebbb95c1d15764e02c2b9ff9060592ebbf,2022-04,Northumbria Police,Northumbria Police,-1.496693,54.877082,On or near LANGDALE ROAD,E01008711,Sunderland 030D,Investigation complete; no suspect identified,,
becbbd18d60ac910efbc4e2caee9c473005788446bac34615f1c6ad1f488a3e1,2022-04,Northumbria Police,Northumbria Police,-1.473591,54.957601,On or near HITHER GREEN,E01008631,Northumberland 030A,Local resolution,,
2f28ad1c2acc3f1056a46a9f28fae19463899e1288abbd18d8c417cd1dcdabb3,2022-04,Northumbria Police,Northumbria Police,-1.611738,54.969722,On or near ST NICHOLAS' STREET,E01033545,Newcastle upon Tyne 024H,Investigation complete; no suspect identified,,
ac40f498d09480a76d8c064b65a24875c6c4e395ecb77fe3e75634db5eeba4b8,2022-04,Northumbria Police,Northumbria Police,-1.367755,54.885286,On or near HEMMING STREET,E01008779,Sunderland 024C,Investigation complete; no suspect identified,,
01026c4d315be204b3bdbc13402041b355a84ea864bc4c8009c3e10056b1d68e,2022-04,Northumbria Police,Northumbria Police,-1.412577,54.929904,On or near WOOLWICH CLOSE,E01008821,Gateshead 008C,Investigation complete; no suspect identified,,
b83369c86939e9baeb135adf871b76bc733d433e38482e487893ef8682b0fd96,2022-04,Northumbria Police,Northumbria Police,-1.59686,54.950083,On or near NORTHBOURNE STREET,E01008711,Gateshead 028B,Investigation complete; no suspect identifined,,
12b9244c80daf9164163573a529e4e37bf83db49a540edd5e7d69e05a843ad0c,2022-04,Northumbria Police,Northumbria Police,-1.37786,54.920512,On or near KINGSTON TERRACE,E01008788,Newcastle upon Tyne 028D,Investigation complete; no suspect identified,,
e0338c2819a995e1ec764fcee98fb8faef30848f57e55377a36631bbe546e1a0,2022-04,Northumbria Police,Northumbria Police,-1.495156,54.982603,On or near WESTERN ROAD,E01027542,South Tyneside 007B,Suspect charged,,
6c5cdd0073dc369a175e79d63ae2dfc4537566e69edb7645d157bcd0980479df,2022-04,Northumbria Police,Northumbria Police,-1.542803,55.008294,On or near SYDNEY GROVE,E01008538,Gateshead 007D,Investigation complete; no suspect identified,,
8c800f00e67485321dd0eb2b773b842e7ba1f8b7b64f1e8a520cb07bfbc6a067,2022-04,Northumbria Police,Northumbria Police,-1.544046,54.995233,On or near ELTRINGHAM CLOSE,E01008535,Northumberland 030A,Investigation complete; no suspect identified,,
62bc86b1d20f99b9279a02d4678c38c36fa46ea5f708628723442d586197aa43,2022-04,Northumbria Police,Northumbria Police,-1.555457,55.129483,On or near AVONDALE AVENUE,E01008242,Northumberland 022D,Investigation complete; no suspect identified,,
c2365270c697b132c53fb7e908aa250529a9c9d219a9afe9e0210f428908d09f,2022-04,Northumbria Police,Northumbria Police,-1.448796,55.004121,On or near COACH LANE,E01008544,South Tyneside 008B,Investigation complete; no suspect identified,,
6c5cdd0073dc369a175e79d63ae2dfc4537566e69edb7645d157bcd0980479df,2022-04,Northumbria Police,Northumbria Police,-1.384684,54.905782,On or nera Parking Area,E01008338,Sunderland 013B,Investigation complete; no suspect identified,,
2f28ad1c2acc3f1056a46a9f28fae19463899e1288abbd18d8c417cd1dcdabb3,2022-04,Northumbria Police,Northumbria Police,-1.439026,55.000716,On or near LONG ROW,E01008831,South Tyneside 002D,Investigation complete; no suspect identified,,
6ff0b1faf82304fe397b9730680bb4421eea532879a522e6969fd97bd9b800b0,2022-04,Northumbria Police,Northumbria Police,-1.419922,54.947616,On or near STATION APPROACH,E01008170,South Tyneside 023D,Investigation complete; no suspect identified,,
becbbd18d60ac910efbc4e2caee9c473005788446bac34615f1c6ad1f488a3e1,2022-04,Northumbria oPlice,Northumbria Police,-1.441682,54.943323,On or near DIPE LANE,E01008831,South Tyneside 023C,Investigation complete; no suspect identified,,
ac40f498d09480a76d8c064b65a24875c6c4e395ecb77fe3e75634db5eeba4b8,2022-04,Northumbria Police,Northumbria Police,-1.386629,54.903985,On or near VINE PLACkE,E01008836,Newcastle upon Tyne 017E,Investigation complete; no suspec tidentified,,
f72c1da12945ecc70701ed5935be47b5f3adb63fdb77be4aa8521ad8c409b6db,202-204,Northumbria Police,Northumbria Police,-1.432302,54.986423,On or near BEAUFRONT TERRACE,E01008664,Gateshead 027C,Offender given a caution,,
6c5cdd0073dc369a175e79d63ae2dfc4537566e69edb7645d157bcd0980479df,2022-04,Northumbria oPlice,Northumbria Police,-1.602647,54.952241,On or near ST ALBAN'S TERRACE,E01008252,Gateshead 010B,Investigation complete; no suspect identified,,
01026c4d315be204b3bdbc13402041b355a84ea864bc4c8009c3e10056b1d68e,2022-04,Northumbria Police,Northumbria Police,-1.422362,54.927687,On or near ROEDEAN ROAD,E01008242,Sunderland 004E,Investigation complete; no suspect identified,,
e0338c2819a995e1ec764fcee98fb8faef30848f57e55377a36631bbe546e1a0,2022-04,Northumbria Police,Northumbria Police,-1.422362,54.927687,On or near ROEDEAN ROAD,E01008170,Sunderland 004E,Investigation complete; no suspect identified,,
f72c1da12945ecc70701ed5935be47b5f3adb63fdb77be4aa8521ad8c409b6db,2022-04,Northumbria Police,Northumbria Police,-1.435333,54.990931,On or near WESTERN APPROACH,E01008546,South Tyneside 002D,Investigation complete; no suspect identified,,
235366b3274659109506347e42ad64ebbb95c1d15764e02c2b9ff9060592ebbf,2022-04,NorthumbriaPolice,Northumbria Police,-1.611516,54.971617,On or near GREY STREET,E01033543,Newcastle upon Tyne 024G,Investigation complete; no suspect identified,,
4ea6848d9fe87bc68c978e27be9338b19c1b2e61db3637ea7465ea395a28e4f0,2022-04,Northumbria Police,Northumbria Police,-1.507007,54.916943,On or near SULGRAVE ROAD,E01008639,Sunderland 007A,Investiagtion complete; no suspect identified,,
d278d16d3e5227431b71ec14f54a2180df24325a4616d19c1f879b9b38a4b1ae,2022-04,Northumbria Police,Northumbria Police,-1.507007,54.916943,On or near SULGRAVE ROAD,E01027417,Sunderland 007A,Investigation complete; no suspect identified,,
9aa71c45b22d29479cfafbfa38ca169bde323a337ed7b4657ba3b9f54697d632,2022-04,Northumbria Police,Northumbria Police,-1.433191,54.986535,On or near DACRE STREET,E01027417,South Tyneside 002A,Investigation complete; no suspect identified,,
d278d16d3e5227431b71ec14f54a2180df24325a4616d19c1f879b9b38a4b1ae,2022-04,Northumbria Police,Northumbria Police,-1.573457,54.902798,On or near GARSIDE AVENUE,E01008170,Gateshead 025A,Investigation complete; no suspect identified,,
b83369c86939e9baeb135adf871b76bc733d433e38482e487893ef8682b0fd96,2022-04,Northumbria Police,Northumbria Police,-1.579986,54.957206,On or near LOBELIA AVENUE,E01008214,Gateshead 003A,Investigation complete; no suspect identified,,
a9ab878db3664172a20d1cd90681ea39ec66790b411dddfefce800cc98c66a63,2022-04,Northumbria Police,Northumbria Police,-1.507556,55.007429,On or near COAST ROAD,E01008461,Newcastle upon Tyne 028D,Investigation complete; no suspect identified,,
235366b3274659109506347e42ad64ebbb95c1d15764e02c2b9ff9060592ebbf,2022-04,Northumbria Police,Northumbria Police,-1.694852,54.986511,On or near LANGLEY ROAD,E01008556,Newcastle upon Tyne 015G,Suspect charged,,
2f28ad1c2acc3f1056a46a9f28fae19463899e1288abbd18d8c417cd1dcdabb3,2022-04,Northumbria Police,Northumbria Police,-1.694852,54.986511,On or near LANGLEY ROAD,E01008330,Newcastle upon Tyne 015G,Investigation complete; no suspect identified,,
24d860ae592931a621b533e3e73e1d4e9aea180bac40f83905d689d446436534,20220-4,Northumbria Police,Northumbria Police,-1.631752,54.970916,On or near ELSWICK STREET,E01008439,Newcastle upon Tyne 024E,Suspect charged,,
6ff0b1faf82304fe397b9730680bb4421eea532879a522e6969fd97bd9b800b0,2022-04,Northumbria Police,Northumbria Police,-1.485126,54.849148,On or near ABBEY DRIVE,E01008425,Sunderland 033B,Investigation compleet; no suspect identified,,
b83369c86939e9baeb135adf871b76bc733d433e38482e487893ef8682b0fd96,2022-04,Northumbria Police,Northumbria Police,-1.465106,55.001552,On or near Pedestrian Subiway,E01027417,North Tyneside 027C,Local resolution,,
fd15e86f920e5133b43919e181a6cef71f07bf04b1bf282b1732d2d33b3533c8,202-204,Northumbria Police,Nortthumbria Police,-1.405698,54.974147,On or near DUNLOP CRESCENT,E01008634,South Tyneside 008B,Investigation complete; no suspect identified,,
fd15e86f920e5133b43919e181a6cef71f07bf04b1bf282b1732d2d33b3533c8,2022-04,Northumbria Police,Northumbria Police,70.594302,54.974147,On or near DUNLOP CRESCENT,01008634,South Tyneside 00B8,Investigation complete; no suspect identified,,
c2365270c697b132c53fb7e908aa250529a9c9d219a9afe9e0210f428908d09f,2022-04,Northumbria Police,Northumbria Police,-1.43099,54.989661,On or near Supermarket,E01008668,Gateshead 012C,Offender given a caution,,
6ff0b1faf82304fe397b9730680bb4421eea532879a522e6969fd97bd9b800b0,2022-04,Northumbria Police,Northumbria Police,-1.43099,54.989661,On or near Supermarket,E01008668,Gateshead 028A,Offender given a caution,,
8dc0b4783d57f7994099c9532cc940f7cc2ba98a6f14d2b8a2015a23f7149377,2022-04,Northumbria Police,Northumbria Police,-1.792248,54.997158,On or near Petrol Station,E01027449,Newcastle upon Tyne 028D,Investigation complete; no suspect identified,,
d278d16d3e5227431b71ec14f54a2180df24325a4616d19c1f879b9b38a4b1ae,2022-04,Northumbria Police,Northumbria Police,-1.400756,54.95774,On or near SUNNISIDE TERRACE,E01008300,South Tyneside 022C,Invstigation complete; no suspect identified,,
58fd1a63e037ca6c5420e04d25ab31f7a3f2eb898b23b35fb5993adf827f60d8,2022-04,Northumbria Police,Northumbria Police,-1.445033,55.010583,On or near NORTHUMBERLAND SQUARE,E01008711,North Tyneside 022B,Suspect charged,,
1b37ed5f2763e3115900456459912a7c268c4e181f216b7b4c4d8ef6ab9c20b7,2022-04,Northumbria Police,Northumbria Police,-1.426348,54.918458,On or near HYLTON PARK ROAD,E01008693,Sunderland 005D,Investigation complete; no suspect identified,,
6ff0b1faf82304fe397b9730680bb4421eea532879a522e6969fd97bd9b800b0,2022-04,Northumbria Police,Northumbria Police,-1.517514,54.965835,On or near TONER AVENUE,E01008646,Gateshead 008C,Investigation complete; no suspect identified,,
1b37ed5f2763e3115900456459912a7c268c4e181f216b7b4c4d8ef6ab9c20b7,2022-04,Northumbria Police,Norhumbria Police,-1.551569,54.940121,On or near LEAMSIDE,E01027417,Gateshead 015A,Investigation complete; no suspect identified,,
1b37ed5f2763e3115900456459912a7c268c4e181f216b7b4c4d8ef6ab9c20b7,2022-04,Northumbria Police,Northumbria Police,-1.449931,54.942831,On or near AVONDALE GARDENS,E01008615,Gateshead 008C,Investigation complete; no suspect identified,,
12b9244c80daf9164163573a529e4e37bf83db49a540edd5e7d69e05a843ad0c,2022-04,Northumbria Police,Northumbria Police,-1.756257,55.060381,On or near Police Station,E01008546,Northumberland 033F,Investigation complete; no suspect identified,,
a9ab878db3664172a20d1cd90681ea39ec66790b411dddfefce800cc98c66a63,2022-04,Northumbria Police,Northumbria Police,-1.608403,54.970448,On or near Pedestrian Subway,E01033553,Newcastle upon Tyne 023H,Investigation complete; no suspect identified,,
c2365270c697b132c53fb7e908aa250529a9c9d219a9afe9e0210f428908d09f,2022-04,Northumbria Police,Northumbrwia Police,-1.443914,54.961477,On or near COBBETT CRESCENT,E01008607,Sunderland 024C,Suspect charged as part of anothe rcase,,
6ff0b1faf82304fe397b9730680bb4421eea532879a522e6969fd97bd9b800b0,2022-04,Northumbria Police,Northumbria Police,-1.594544,54.981662,On or near AMBLE GROVE,E01008411,Newcastle upon Tyne 017E,Investigation complete; no suspect identified,,
235366b3274659109506347e42ad64ebbb95c1d15764e02c2b9ff9060592ebbf,2022-04,Northumbria Police,Northumbria Police,-1.544691,55.023847,On or near ELIZABETH COURT,E01008503,Gateshead 012C,Investigation complete; no suspect identified,,
235366b3274659109506347e42ad64ebbb95c1d15764e02c2b9ff9060592ebbf,2022-4,Northubria Police,Northumbria Police,-1.661964,54.974616,On or near HEYBURN GARDENS,E01027542,Newcastle upon Tyne 029D,Investigation complete; no suspect identified,,
235366b3274659109506347e42ad64ebbb95c1d15764e02c2b9ff9060592ebbf,2022-04,Northumbriya Police,Northumbria Police,-1.517119,55.083328,On or near MEADOW VIEW,E01027417,Northumberland 030B,Suspect charged,,
c2365270c697b132c53fb7e908aa250529a9c9d219a9afe9e0210f428908d09f,2022-04,Northumbria Police,Northumbria Police,-1.507007,54.916943,n or near SULGRAVE ROAD,E01008546,Sunderland 007A,Investigation complete; no suspect identified,,
f72c1da12945ecc70701ed5935be47b5f3adb63fdb77be4aa8521ad8c409b6db,2022-04,Northumbria Police,Northumbria Police,-1.608048,54.974841,On or near OXFORD STREET,E01008242,Newcastle upon Tyne 024C,Investigation complete; no suspect identified,,
a9ab878db3664172a20d1cd90681ea39ec66790b411dddfefce800cc98c66a63,202q2-04,Northumbria Police,Northumbria Police,-1.685369,55.008216,On or near EASTGARTH,E01008300,Newcastle upon Tyne 004E,Suspect chared,,
2f28ad1c2acc3f1056a46a9f28fae19463899e1288abbd18d8c417cd1dcdabb3,2022-04,Nothumbria Police,Northumbria Police,-2.043038,54.914322,On or near CHURCH CLOSE,E01008259,Northumberland 040E,Investigation complete; no suspect identified,,
1b37ed5f2763e3115900456459912a7c268c4e181f216b7b4c4d8ef6ab9c20b7,2022-04,Northumbria Police,Northumbria Police,-1.565676,55.179203,On or near BOLSOVER TERRACE,E01008338,Northumberland 010A,Investigation ocmplete; no suspect identified,,
4ea6848d9fe87bc68c978e27be9338b19c1b2e61db3637ea7465ea395a28e4f0,2022-04,Northumbria Police,Northumbria Police,-1.630258,54.978873,On or near LEAZES PARADE,E01008216,Newcastle upon Tyne 022B,Offender given a drugs possession warning,,
b83369c86939e9baeb135adf871b76bc733d433e38482e487893ef8682b0fd96,2022-04,Northubria Police,Northumbria Police,-1.483689,54.850706,On or near BLINeD LANE,E01008751,Sunderland 016C,Suspect charged as part of another case,,
6ff0b1faf82304fe397b9730680bb4421eea532879a522e6969fd97bd9b800b0,2022-04,Northumbria Police,Northumbria Police,-1.416096,54.885169,On or near PATON ROAD,E01008170,Sunderland 023F,Investigation complete; no suspect identified,,
c2365270c697b132c53fb7e908aa250529a9c9d219a9afe9e0210f428908d09f,2022-04,Northumbria Police,Northumbria Police,-1.710231,54.981921,On or near HONISTER CLOSE,E01027417,Newcastle upon Tyne 021B,Investigation complete; no suspect identified,,
235366b3274659109506347e42ad64ebbb95c1d15764e02c2b9ff9060592ebbf,2022-04,Northumbria Police,Northumbria Police,-1.570793,54.950991,On or near HIGH STREET,E01008212,Gateshead 012A,Investigation complete; no suspect identified,,
4ea6848d9fe87bc68c978e27be9338b19c1b2e61db3637ea7465ea395a28e4f0,2022-04,Northujmbria Police,Northumbria Police,-1.56348,54.890946,On or near FELL CLOSE,E01008639,Gateshead 026E,Investigation complete; no suspect identified,,
c2365270c697b132c53fb7e908aa250529a9c9d219a9afe9e0210f428908d09f,2022-04,Northumbria Police,Northumbria Police,-1.568617,54.977736,On or near TUNSTALL AVENUE,E01008242,Newcastle upon Tyne 026F,Investigation complete; no suspect identified,,
6ff0b1faf82304fe397b9730680bb4421eea532879a522e6969fd97bd9b800b0,2022-04,Northumbria Police,Northumbria Police,-1.568617,54.977736,On or near TUNSTALL AVENUE,E01008242,Newcastle upon Tyne 026F,Investigation complete; no suspect identified,,
62bc86b1d20f99b9279a02d4678c38c36fa46ea5f708628723442d586197aa43,2022-04,Northumbria Police,Northumbria Police,-1.52135,54.913765,On or near HOUSE TERRACE,E01008858,Gateshead 008C,Investigation complete; no suspect identified,,
b83369c86939e9baeb135adf871b76bc733d433e38482e487893ef8682b0fd96,2022-04,Northumbria Police,qNorthumbria Police,-1.745256,55.044722,On or near DUNSGREEN,E01008170,Northumberland 033A,Investigation complete; no suspect identified,,
8dc0b4783d57f7994099c9532cc940f7cc2ba98a6f14d2b8a2015a23f7149377,2022-04,Northumbria Police,Northumbria Police,-1.599379,54.960543,On or near ST BEDE'S DRIVE,E01008259,Gateshead 027C,Investigation complete; no suspect identified,,
d278d16d3e5227431b71ec14f54a2180df24325a4616d19c1f879b9b38a4b1ae,2022-04,Northumbria Police,Northumbria Police,-1.473318,54.996412,On or near NELSON CRESCENT,E01027417,North Tyneside 027C,Investigation complete; no suspect identified,,
ab3b1970bc1f1cb2ef6a16c324a79a5f20c1b036b2fe05f020060cdcf3b29a71,2022-04,Northumbria Poflice,Northumbria Police,-1.690277,54.996294,On or near BERKSHIRE CLOSE,E01008556,Newcastle upon Tyne 031A,Investigation complete; no suspect identified,,
1b37ed5f2763e3115900456459912a7c268c4e181f216b7b4c4d8ef6ab9c20b7,2022-04,Northumbria Police,Northumbria Police,-1.665793,55.012072,On or nelar Shopping Area,E01027417,Newcastle upon Tyne 008A,Investigation complete; no suspect identified,,
1b37ed5f2763e3115900456459912a7c268c4e181f216b7b4c4d8ef6ab9c20b7,2022-04,Northumbria Police,Northumbria Police,-1.617415,54.965633,On or near COOKSON'S LANE,E01008429,Newcastle upon Tyne 024H,Investigation complete; no suspect identified,,
becbbd18d60ac910efbc4e2caee9c473005788446bac34615f1c6ad1f488a3e1,2022-04,Northumbria Police,Northumbria Police,-1.601834,54.963372,On or near ELLISON STREET,E01008259,Gateshead 027C,Suspect charged,,
1b37ed5f2763e3115900456459912a7c268c4e181f216b7b4c4d8ef6ab9c20b7,2022-04,Northumbria Police,Northumbria Police,-1.365823,54.867402,On or near Sports/Recreation Area,E01008338,Sunderland 028E,Investigation complete; no suspect identified,,
01026c4d315be204b3bdbc13402041b355a84ea864bc4c8009c3e10056b1d68e,2022-04,Northumbria Police,Northumbria Police,-1.478994,54.842769,On or near BURN PARK ROAD,E01008754,Gateshead 028A,Investigation complete; no suspect uidentified,,
6c5cdd0073dc369a175e79d63ae2dfc4537566e69edb7645d157bcd0980479df,2022-04,Northumbria Police,Northmbria Police,-1.614464,54.968814,On or near Pedestrian Subway,E01033545,Newcastle upon Tyne 024C,Investigation complete; no suspect identified,,
9987f095bef6845168544464b1f872914bc89399b395e2230af76569a29a83eb,2022-04,Northumbria Police,Northumbria Police,-1.617258,54.970746,On or near FALCONAR'S COURT,E01033543,Newcastle upon Tyne 024G,Investigation complete; no suspect idetified,,
b83369c86939e9baeb135adf871b76bc733d433e38482e487893ef8682b0fd96,2022-04,Northumbria Police,Northumbria Police,-1.711021,55.410739,On or near LISBURN TERRACE,E01008425,Northumberland 005E,Investigation complete; no suspect identified,,
6c5cdd0073dc369a175e79d63ae2dfc4537566e69edb7645d157bcd0980479df,2022-04,Northumbria Police,Northumbria Police,-1.584056,55.086262,On or near CHURHC STREET,E01008425,Northumberland 029B,Offender given a caution,,
8dc0b4783d57f7994099c9532cc940f7cc2ba98a6f14d2b8a2015a23f7149377,2022-04,Northumbria Police,Northumbria Police,-1.633585,54.972027,On or near QUARRY BANK COURT,E01008439,Newcastle upon Tiyne 024E,Investigation complete; no suspect identified,,
62bc86b1d20f99b9279a02d4678c38c36fa46ea5f708628723442d586197aa43,2022-04,Northumbria Police,Northumbria Police,-1.682677,54.937127,On or near BIRCHWOOD AVENUE,E01008831,Gateshead 017B,Investigation complee; no suspect identified,,
e2a8e0ce75cb2f1544cec9a24f578d519434d4fbd9c09892d767b27a7d99edfa,2022-04,Northumbria Police,Northumbria Police,-1.716752,54.961214,On or near HARRIET STREET,E01008556,Gateshead 004A,Investigation complete; no suspect identified,,
b9543ad25a686fa02da1bd5ea9af2d62dfff0f65013fecd0347c9e3af3a36fe4,2022-04,Northumbria Police,Northumbria Police,-1.634255,55.296721,On or near WANSBECK ROAD,E01008300,Northumberland 008B,Investigation complete; no suspect identified,,
4ea6848d9fe87bc68c978e27be9338b19c1b2e61db3637ea7465ea395a28e4f0,2022-04,NorthumbriaPolice,Northumbria Police,-1.45357,54.96694,On or near LAYBOURN GARDENS,E01008429,South Tyneside 014D,Investigation complete; no suspect identifeid,,
ac40f498d09480a76d8c064b65a24875c6c4e395ecb77fe3e75634db5eeba4b8,2022-04,Northumbria Police,Northumbria Police,-1.611537,54.971123,On or near Nightclub,E01008216,Newcastle upon Tyne 024G,Investigation complete; no suspect identified,,
01026c4d315be204b3bdbc13402041b355a84ea864bc4c8009c3e10056b1d68e,2022-04,Northumbria Police,Northumbria Police,-1.444202,55.045842,On or near Nightclub,E01008259,North Tyneside 006A,Suspect charged,,
62bc86b1d20f99b9279a02d4678c38c36fa46ea5f708628723442d586197aa43,2022-04,Northumbria Police,Northumbria Police,-1.628304,54.953571,On or near ABBEYFIELD CLOSE,E01008429,Gateshead 007C,Investigation complete; no suspect identified,,
a9ab878db3664172a20d1cd90681ea39ec66790b411dddfefce800cc98c66a63,2022-04,Northumbria Police,Northumbria Police,-1.512453,55.126991,On or near Parkiwng Area,E01027417,Northumberland 023B,Investigation complete; no suspect identified,,
d278d16d3e5227431b71ec14f54a2180df24325a4616d19c1f879b9b38a4b1ae,2022-04,Northumbria Police,Northumbria Police,-1.431736,54.986672,On or near LAYGATE,E01008639,South Tyneside 002A,Investigation complete; no suspect identified,,
235366b3274659109506347e42ad64ebbb95c1d15764e02c2b9ff9060592ebbf,2022-04,Northumbria Police,Northumbria Police,-1.431736,54.986672,On or near LAYGATE,E01008664,Newcastle upon Tyne 027B,Investigation complete; no suspect identified,,
d278d16d3e5227431b71ec14f54a2180df24325a4616d19c1f879b9b38a4b1ae,2022-04,Northumbria Police,Northumbria Police,-1.43693,54.90466,On or near PRESTWICK ROAD,E01033076,North Tyneside 013C,Investigation complete; no suspect identified,,
ac40f498d09480a76d8c064b65a24875c6c4e395ecb77fe3e75634db5eeba4b8,2022-04,Northumbria Police,Northubmria Police,-1.606958,55.158415,On or near OVEDRALE COURT,E01008242,Northumberland 017A,Investigation complete; no suspect identified,,
6ff0b1faf82304fe397b9730680bb4421eea532879a522e6969fd97bd9b800b0,022-04,Northumbria Police,Northumbria Police,-1.483756,55.016128,On or near DARRAS DRIVE,E01008491,North Tyneside 013C,Investigation complete; no suspect identified,,
46a902078198ebb6c33cea72a5f6ecfe7e6a97b590521650559b88f0fc835244,2022-04,Northumbria Police,Northumbria Police,-2.012705,55.757776,On or near Parking Area,E01008242,Northumberland 001C,Suspect charged,,
84fb206b9faeed1169c52e92589f6e4258fa55e752c6973d1fa05766a5438dc9,2022-04,Northumbria Police,Northumbria Police,77.555577,54.981168,On or near DEVONSHIRE STREET,E0108671,SouthTyneside 012C,Investigation complete; no suspect identified,,
6c5cdd0073dc369a175e79d63ae2dfc4537566e69edb7645d157bcd0980479df,2022-04,Northumbria Police,Northumbria Police,-1.444423,54.981168,On or near DEVONSHIRE STREET,E01008259,South Tyneside 012C,Investigation complete; no suspect identified,,
84fb206b9faeed1169c52e92589f6e4258fa55e752c6973d1fa05766a5438dc9,2022-04,Northumbria Police,Northumbria Police,-1.444423,54.981168,On or near DEOVNSHIRE STREET,E01008671,South Tyneside 012C,Investigation complete; no suspect identified,,
01026c4d315be204b3bdbc13402041b355a84ea864bc4c8009c3e10056b1d68e,2022-04,Northumbria Police,Northumbria jPolice,-1.444423,54.981168,On or near DEVONSHIRE STREET,E01027539,South Tyneside 012C,Investigation complete; no suspect identified,,
d278d16d3e5227431b71ec14f54a2180df24325a4616d19c1f879b9b38a4b1ae,2022-04,Northumbria Police,Northumbria Police,-1.616754,54.985868,On or near Park/Open Space,E01008242,Newcastle upon Tyne 024C,Investigation complete; no suspect identified,,
9987f095bef6845168544464b1f872914bc89399b395e2230af76569a29a83eb,2022-04,Northumbria Police,Northumbria Police,-1.616754,54.985868,On or near Park/Open Space,E01008397,Newcastle upon Tyne 024C,Investigation complete; no suspect identified,,
becbbd18d60ac910efbc4e2caee9c473005788446bac34615f1c6ad1f488a3e1,2022-04,Northumbria Poilce,Northumbria Police,-1.650145,54.971878,On or near ILFRACOMBE AVENUE,E01008242,Newcastle upon Tyne 029E,Investigation complete; no suspect identified,,
d2d79084528fb5a07ad52dc8f99af52e1175ea8685184a2848b81715e1209f0c,2022-04,Northumbria Police,Northumbria Police,-1.650145,54.971878,On or near ILFRACOMBE AVENUE,E01008429,Newcastle upon Tyne 029E,Investigation complete; no suspect identified,,
becbbd18d60ac910efbc4e2caee9c473005788446bac34615f1c6ad1f488a3e1,2022-04,Northumbria Police,Northumbria Police,-1.385172,54.924916,On or near NEWBURY STREET,E01008425,Sunderland 005D,Investigation complete; no suspect identified,,
f72c1da12945ecc70701ed5935be47b5f3adb63fdb77be4aa8521ad8c409b6db,202-04,Northumbria Police,Northumbria Police,-1.642778,54.978228,On or near GAINSBRO GROVE,E01027417,Newcastle upon Tyne 022H,Investigation complete; no suspect identified,,
4f264781c098e9b903a8449ebd095a1657fb40728b14700cfc4c02cfb8595405,2022-04,Northumbria Police,Northumbria Police,-1.56679,54.950025,On or near ELLIOTT DRIVE,E01008170,Gateshead 012C,Investigation complete; no suspect identified,,
ac40f498d09480a76d8c064b65a24875c6c4e395ecb77fe3e75634db5eeba4b8,2022-40,Northumbria Police,Northumbrias Police,-1.518687,54.879337,On or near RIVERVIEW,E01008861,South Tyneside 009A,Investigation complete; no suspect identified,,
c2365270c697b132c53fb7e908aa250529a9c9d219a9afe9e0210f428908d09f,2022-04,Northumbria Police,Northumbria Police,-1.603499,54.914816,On or near Pedestrian Subway,E01008546,Gateshead 025D,Investigation complete; no suspect identified,,
e2a8e0ce75cb2f1544cec9a24f578d519434d4fbd9c09892d767b27a7d99edfa,2022-04,Northumbbria Police,Northumbria Police,-1.46081,54.926641,On or near BARKING SQUARE,E01008698,North Tyneside 016B,Investigation complete; no suspect identified,,
4ea6848d9fe87bc68c978e27be9338b19c1b2e61db3637ea7465ea395a28e4f0,2022-04,Northumbrai Police,Northumbria Police,-1.46081,54.926641,On or near BARKING SQUARE,E01008698,Gateshead 015D,Investigationcomplete; no suspect identified,,
c2365270c697b132c53fb7e908aa250529a9c9d219a9afe9e0210f428908d09f,2022-04,Northumbria Police,Northumbria Police,-1.573457,54.902798,On or ner GARSIDE AVENUE,E01008170,Gateshead 025A,Investigation complete; no suspect identified,,
d2d79084528fb5a07ad52dc8f99af52e1175ea8685184a2848b81715e1209f0c,2022-04,Northumbria Police,Northumbria Police,-1.474552,54.868262,On or near LANGLEY STREET,E01032483,Gateshead 012A,Investigation complete; no suspect identified,,
1b37ed5f2763e3115900456459912a7c268c4e181f216b7b4c4d8ef6ab9c20b7,2022-04,Northumbria Police,Northumbria Police,-1.449536,55.006057,On or near STANLEY STREET WEST,E01008170,North Tyneside 027D,Investigation complete; no suspect identified,,
1b37ed5f2763e3115900456459912a7c268c4e181f216b7b4c4d8ef6ab9c20b7,2022-04,Northumbria Police,Northumbria Police,-1.449536,55.006057,On or near STANLEY STREET WEST,E01008544,Gateshead 015D,Investigation complete; no suspect identified,,
d2d79084528fb5a07ad52dc8f99af52e1175ea8685184a2848b81715e1209f0c,2022-04,Northumbria Police,Northumbria Police,-1.510565,55.130057,On or near BURT STREET,E01027415,Northumberland 023B,Suspect charged,,
d2d79084528fb5a07ad52dc8f99af52e1175ea8685184a2848b81715e1209f0c,2022-04,Northumbria Police,Northumbria Police,8.489435,55.130057,On or near BURT STREET,E0h1027415,Northumrberland 023B,Suspect charged,,
d2d79084528fb5a07ad52dc8f99af52e1175ea8685184a2848b81715e1209f0c,2022-04,Northumbria Police,Northumbria pPolice,30.489435,55.130057,On or near BURT STREET,E00127415,Northumberlan d023B,Suspect charged,,
d2d79084528fb5a07ad52dc8f99af52e1175ea8685184a2848b81715e1209f0c,2022-04,Northumbria Police,Northumbria Police,83.489435,55.130057,On or near BURTS TREET,E0r1027415,orthumberland 023B,Investigation complete; no suspect identified,,
b83369c86939e9baeb135adf871b76bc733d433e38482e487893ef8682b0fd96,202-04,Northumbria Police,Northumbria Police,-1.435879,55.041122,On or near ROCKCLIFFE STREET,E01027519,North Tyneside 006C,Investigation complete; no suspect identified,,
2f28ad1c2acc3f1056a46a9f28fae19463899e1288abbd18d8c417cd1dcdabb3,022-04,Northumbria Plice,Northumbria Police,-1.435879,55.041122,On or near ROCKCLIFFE STREET,E01008546,North Tyneside 006C,Investigation complete; no suspect identified,,
62bc86b1d20f99b9279a02d4678c38c36fa46ea5f708628723442d586197aa43,2022-04,Northumbria Police,Northumbria Police,-1.584782,55.18104,On or near WANSBECK MWS,E01008242,Northumberland 012A,Investigation complete; no suspenct identified,,
6c5cdd0073dc369a175e79d63ae2dfc4537566e69edb7645d157bcd0980479df,2022-04,Northumbria Police,Northumbria Police,-1.389624,54.934896,On or near KENTMERE AVENUE,E01008724,Newcastle upon Tyne 024C,Investigation complete; no suspect identified,,
d278d16d3e5227431b71ec14f54a2180df24325a4616d19c1f879b9b38a4b1ae,2022-04,Northumbria Police,Northumbria Police,-1.6286,54.950283,On or near Parking Area,E01008259,Gateshead 007D,Investigation complete; no suspect identified,,
f72c1da12945ecc70701ed5935be47b5f3adb63fdb77be4aa8521ad8c409b6db,2022-04,Northumbria Police,Northumbria Police,-1.463948,54.834885,On or near SYCAMORE CLOSE,E01008259,Sunderland 034D,Investigation complete; no suspect identified,,
4ea6848d9fe87bc68c978e27be9338b19c1b2e61db3637ea7465ea395a28e4f0,2022-04,Northumbria Police,Northumbria Police,-1.46419,54.842462,On or near NESHAM PLACE,E01027417,Sunderland 034B,Investigation complete; no suspect identified,,
8dc0b4783d57f7994099c9532cc940f7cc2ba98a6f14d2b8a2015a23f7149377,2022-04,Northumbria Police,Northumbria Police,-1.447423,54.821664,On or near SUMMERSON STREET,E01008742,Gateshead 008C,Investigation complete; no suspect identified,,
a9ab878db3664172a20d1cd90681ea39ec66790b411dddfefce800cc98c66a63,2022-04,orthumbria Police,Northumbria Police,-1.431736,54.986672,On or near LAYGATE,E01008429,South Tyneside 002A,Investigation complete; no suspect identified,,
d278d16d3e5227431b71ec14f54a2180df24325a4616d19c1f879b9b38a4b1ae,2022-04,Northumbria Police,Northumbria Police,-1.599353,55.293862,On or near WOODSIDE CRESCENT,E01027519,Northumberland 008A,Investigation complete; no suspect identified,,
c2365270c697b132c53fb7e908aa250529a9c9d219a9afe9e0210f428908d09f,2022-04,Northumbria Police,Northumbria Police,-1.436339,54.89896,On or near PORTCHESTER ROAD,E01027519,Sunderland 014C,Offender given a caution,,
6ff0b1faf82304fe397b9730680bb4421eea532879a522e6969fd97bd9b800b0,2022-04,Northumbria Police,Northmbria Police,-1.440601,55.015577,On or near LINSKILL PLACE,E01008338,North Tyneside 017C,Investigation complete; no suspect identified,,
d278d16d3e5227431b71ec14f54a2180df24325a4616d19c1f879b9b38a4b1ae,2022-04,Northumbria Police,Northumbria Police,-1.561347,55.024052,On or near FOREST HALL ROAD,E01008500,Gateshead 027C,Suspect charged,,
7dd3b60040125004ed0ee9fb39c0589b6b2747ae2453a7ddb5a36df4e57e3a38,2022-04,Northumbria Police,Northumbriua Police,-1.561347,55.024052,On or near FOREST HALL ROAD,E01008500,North Tyneside 012A,Suspect charged,,
7dd3b60040125004ed0ee9fb39c0589b6b2747ae2453a7ddb5a36df4e57e3a38,2022-04,Northumbria Police,Northumbria Police,89.438653,55.024052,Onor near FOREST HALL ROAD,01008500,North Tyneside 021A,Suspect charged,,
58fd1a63e037ca6c5420e04d25ab31f7a3f2eb898b23b35fb5993adf827f60d8,2022-04,Northumbria Police,Northumbria Police,-1.561347,55.024052,On or near FOREST HALL ROAD,E01008500,Newcastle upon Tyne 028D,Suspect charged,,
4ea6848d9fe87bc68c978e27be9338b19c1b2e61db3637ea7465ea395a28e4f0,022-04,Northumbria Police,Northumbria Police,-1.535133,54.991488,On or near Supermarket,E01008170,North Tyneside 030C,Investigation complete; no suspect identified,,
d278d16d3e5227431b71ec14f54a2180df24325a4616d19c1f879b9b38a4b1ae,2022-04,Northumbria Police,Northumbria Police,-1.833947,54.990734,On or near B6528,E01008556,Northumberland 036D,Investigation complete; no suspect identified,,
266a51fa0b0ff528613cbdca3e3ea4769a2165ef886cd0391321234b82d51ed9,2022-04,Northumbria Police,Northumbria Poxlice,-1.833947,54.990734,On or near B6528,E01027513,Gateshead 008C,Investigation complete; no suspect identified,,
becbbd18d60ac910efbc4e2caee9c473005788446bac34615f1c6ad1f488a3e1,2022-04,Northumbria Police,Northumbria Police,-1.447484,55.008618,On or near Supermarket,E01008524,Newcastle upon Tyne 023H,Investigaton complete; no suspect identified,,
c2365270c697b132c53fb7e908aa250529a9c9d219a9afe9e0210f428908d09f,2022-04,Northumbria Police,Northumbria Police,-1.449068,54.962588,On ro near KINGSLEY AVENUE,E01008607,Gateshead 012A,Investigation complete; no suspect identified,,
c2365270c697b132c53fb7e908aa250529a9c9d219a9afe9e0210f428908d09f,2022-04,Northumbria Police,Northumbria Police,-1.446445,54.915928,On or near THE GROVE,E01008546,Sunderland 008E,Suspec tcharged,,
d278d16d3e5227431b71ec14f54a2180df24325a4616d19c1f879b9b38a4b1ae,2022-04,Northumbria Police,Northumbria Police,-1.665793,55.012072,On or near Shopping Area,E01008639,Newcastle upon Tyne 008A,Investigation complete; no suspect identified,,
f72c1da12945ecc70701ed5935be47b5f3adb63fdb77be4aa8521ad8c409b6db,2022-04,Northumbria Police,Northumbria Police,-1.466348,55.025722,Ono r near Hospital,E01008556,Gateshead 003A,Investigation complete; no suspect identified,,
c2365270c697b132c53fb7e908aa250529a9c9d219a9afe9e0210f428908d09f,2022-04,Northumbria Police,Northumbria Police,-1.472341,54.831174,On or ear CORN MILL DRIVE,E01008747,Gateshead 008C,Investigation complete; no suspect identified,,
6c5cdd0073dc369a175e79d63ae2dfc4537566e69edb7645d157bcd0980479df,2022-04,Northumbria Police,Northumbria Police,-1.621934,54.96846,On or near WESTMORLAND ROAD,E01033545,Sunderland 013D,Investigation complete; no suspect identified,,
d278d16d3e5227431b71ec14f54a2180df24325a4616d19c1f879b9b38a4b1ae,2022-04,Northumbria Police,Northumbria Police,-1.512558,55.185302,On or near WOODHORN LANE,E01008242,Northumberland 009A,Investigation complete; no suspect identified,,
b9543ad25a686fa02da1bd5ea9af2d62dfff0f65013fecd0347c9e3af3a36fe4,2022-04,Northumbria Police,Northumbria Police,-1.658134,54.969367,On or near CLARA STREET,E01008291,Newcastle upon Tyne 016A,Local resolution,,
1b37ed5f2763e3115900456459912a7c268c4e181f216b7b4c4d8ef6ab9c20b7,2022-04,Northumbria Police,Northumbria Police,-1.507046,54.894567,On or near Pedestrian Subway,E01008170,Sunderland 017E,Investigation complete; no suspect identified,,
58fd1a63e037ca6c5420e04d25ab31f7a3f2eb898b23b35fb5993adf827f60d8,2022-04,Northumbria Police,Northumbria Police,-1.507046,54.894567,On or near Pedestrian Subway,E01027539,Sunderland 017E,Investigation complete; no suspect identified,,
ac40f498d09480a76d8c064b65a24875c6c4e395ecb77fe3e75634db5eeba4b8,2022-04,Northumbria Plice,Northumbria Police,-1.668623,55.00065,On or near RAWLSTON WAY,E01008425,Newcastle upon Tyne 011A,Investigation complete; no suspect identified,,
235366b3274659109506347e42ad64ebbb95c1d15764e02c2b9ff9060592ebbf,2022-04,Northumbria Police,Northumbria Polce,-1.560753,55.172743,On or near MILBURN ROAD,E01008711,Northumberland 014A,Investigation complete; no suspect identified,,
becbbd18d60ac910efbc4e2caee9c473005788446bac34615f1c6ad1f488a3e1,20l22-04,Northumbria Police,Northumbria Police,-1.513656,54.960635,On or near WESTMINSTER CRESCENT,E01008216,South Tyneside 015C,Investigation complete; no suspect identified,,
01026c4d315be204b3bdbc13402041b355a84ea864bc4c8009c3e10056b1d68e,2022-04,Northumbria Police,Northumbria Police,-1.472341,54.831174,On or near CORN MIcLL DRIVE,E01008546,Sunderland 035D,Investigation complete; no suspect identified,,
c2365270c697b132c53fb7e908aa250529a9c9d219a9afe9e0210f428908d09f,2022-w04,Northumbria Police,Northumbria Police,-1.580911,54.974957,On or near BRINKBURN CLOSE,E01008639,Newcastle upon Tyne 026C,Investigation complete; no suspect identified,,
c3abeb821539518dba5bb6126b458da381d136f59db73fef5c3b1c8e07b1a508,2022-04,Northumbria Police,Northumbria Police,-1.580911,54.974957,On or near BRINKBURN CLOSE,E01008170,Newcastle upon Tyne 026C,Investigation complete; no suspect identified,,
4ea6848d9fe87bc68c978e27be9338b19c1b2e61db3637ea7465ea395a28e4f0,2022-04,Northumbria Police,Northumbria Polie,-1.462967,54.841917,On or near MOUNT PLEASANT,E01008259,Sunderland 034A,Investigation complete; no suspect identified,,
235366b3274659109506347e42ad64ebbb95c1d15764e02c2b9ff9060592ebbf,2022-04,Northumbria Police,Northumbria Police,-1.462967,54.841917,On or near MOUNT PLEASANT,E01008714,Sunderland 024C,Investigation complete; no suspect identified,,
d2d79084528fb5a07ad52dc8f99af52e1175ea8685184a2848b81715e1209f0c,2022-04,Northumbria Police,Northumbria Police,-1.568311,55.140187,On or near STATION ROAD,E01008711,Northumberland 020F,Investigation complete; no suspect identified,,
46a902078198ebb6c33cea72a5f6ecfe7e6a97b590521650559b88f0fc835244,2022-04,Northumbria Police,Northumbra Police,-1.41899,54.902841,On or near HYLTON ROAD,E01008639,Sunderland 015B,Investigation complete; no suspect identified,,
065b30ee4f03a1fc084afeb37cf314622b03dd2e71ba6148b4ac4dc4fa575e5c,2022-04,Northumrbia Police,Northumbria Police,-1.586451,54.97397,On or near ALBION ROW,E01027542,Newcastle upon Tyne 026C,Investigation complete; no suspect identified,,
4ea6848d9fe87bc68c978e27be9338b19c1b2e61db3637ea7465ea395a28e4f0,2022-04,Northumbria Police,Northumbria Police,-1.509105,54.902169,On or near Parking Area,E01008425,Sunderland 017B,Investigation complete; no suspect identified,,
84fb206b9faeed1169c52e92589f6e4258fa55e752c6973d1fa05766a5438dc9,2022-04,Northumbria Police,Northumbria Police,-1.603974,54.950682,On or near WESTFIELD TERRACE,E01008711,Gateshead 010B,Investigation complete; no suspect identified,,
d278d16d3e5227431b71ec14f54a2180df24325a4616d19c1f879b9b38a4b1ae,2022-04,Northumbria Police,Northumbria Police,-1.370657,54.908154,On or near JAMES WILLIAMS STREET,E01008702,Gateshead 027A,Investigation complete; no suspect identified,,
b83369c86939e9baeb135adf871b76bc733d433e38482e487893ef8682b0fd96,2022-04,Northumbria Police,Northumbria Police,-1.503443,54.903539,On or near STOCKLEY ROAD,E01008846,Newcastle upon Tyne 030B,Investigation complete; no suspect identified,,
c2365270c697b132c53fb7e908aa250529a9c9d219a9afe9e0210f428908d09f,2022-04,Northumbria Police,Northumbria Police,-1.626072,54.975383,On or near Petrol Station,E01033554,Northumberland 030A,Investigation complete; no suspect identified,,
2f78d6311b329d53e7e7685f8cd7839cd1863ed33f0468120034bfec298df4d7,2022-04,Northumbria Police,Northumbria Police,-1.57426,54.989312,On or near BIDDLESTONE ROAD,E01027417,Newcastle upon Tyne 018F,Investigation complete; no suspect identified,,
2928e3e746b6781dc73a6a0b8ab84c4ba3cd3fd824ee14df6777feeb96e0722e,2022-04,Northumbria Police,Northumbria Police,-1.504725,54.964292,On or near RUTLAND ROAD,E01008300,South Tyneside 015C,Investigation complete; no suspect identified,,
235366b3274659109506347e42ad64ebbb95c1d15764e02c2b9ff9060592ebbf,2022g-04,Northumbria Police,Northumbria Police,-1.504725,54.964292,On o near RUTLAND ROAD,E01008645,Newcastle upon Tyne 023F,Investigation complete; no suspect identified,,
ac40f498d09480a76d8c064b65a24875c6c4e395ecb77fe3e75634db5eeba4b8,2022-04,Northumbria Police,Northumbria Police,-1.621086,54.973876,On or near Parking Area,E01027417,Newcastle upon Tyne 024C,Investigation complete; no suspect identified,,
1b37ed5f2763e3115900456459912a7c268c4e181f216b7b4c4d8ef6ab9c20b7,2022-04,Northumbria Police,Northumbria Ploice,-1.542701,54.907206,On or near PHASANTMOOR,E01008875,Sunderland 013D,Investigatin complete; no suspect identified,,
235366b3274659109506347e42ad64ebbb95c1d15764e02c2b9ff9060592ebbf,2022-04,Northumbria Police,Northumbria Police,-1.527985,55.105081,On or near SOUTH NEWSHAM ROAD,E01027426,Northumberland 030A,Investigation complete; no suspect identified,,
ac40f498d09480a76d8c064b65a24875c6c4e395ecb77fe3e75634db5eeba4b8,2022-04***,Northumbria Police,Northumbria Police,-1.671733,55.000811,On or near CRAIGMILLAR AVENUE,E01008296,Newcastle upon Tyne 011A,Investigation complete; no suspect identified,,
2928e3e746b6781dc73a6a0b8ab84c4ba3cd3fd824ee14df6777feeb96e0722e,2022-04,Northumbria Police,Northumbria Police,-1.449572,54.90399,On or near UNION STREET,E01008811,South Tyneside 009A,Suspect charged,,
becbbd18d60ac910efbc4e2caee9c473005788446bac34615f1c6ad1f488a3e1,2022-04,Northumbria Police,Northumria Police,-1.585991,54.976188,On or near Parking Amrea,E01008170,Newcastle upon Tyne 026C,Offender given a caution,,
b83369c86939e9baeb135adf871b76bc733d433e38482e487893ef8682b0fd96,2022-04,Northumbria Police,Northumbria Police,-1.534665,55.127779,On or near LANGLEY AVENUE,E01027392,Northumberland 022A,Investigation complete; no suspect identified,,
6c5cdd0073dc369a175e79d63ae2dfc4537566e69edb7645d157bcd0980479df,2022-04,Northumbria Police,Northumbria Police,-1.492335,54.867952,On or near THE COVE,E01008546,Sunderland 030A,Investigation complete; no snuspect identified,,
6ff0b1faf82304fe397b9730680bb4421eea532879a522e6969fd97bd9b800b0,2022-04,Northumbria Police,Northumbria Police,-1.443865,55.041877,On or near VICTORIA MEWS,E01008546,North Tyneside 006D,Local resolution,,
b83369c86939e9baeb135adf871b76bc733d433e38482e487893ef8682b0fd96,2022-04,Northumbria Plice,Northumbria Polkice,-1.503952,55.010586,On or near MIDDLE ENGINE LANE,E01008711,North Tyneside 021D,Local resolution,,
92c800b5115743afa8897ca94b4b772505ad42629230951b444d7fd341b8f395,2202-04,Northumbria Police,Northmubria Police,-1.673395,54.957798,On or near Parking Area,E01008262,Gateshead 009A,Investigation complete; no suspect identified,,
92c800b5115743afa8897ca94b4b772505ad42629230951b444d7fd341b8f395,2022-04,Northumbria Police,Northumbria Police,4.326605,54.957798,On or nerar Parking Area,E01008262***,Gatesohead 009A,Investigation complete; no suspect identified,,
1b37ed5f2763e3115900456459912a7c268c4e181f216b7b4c4d8ef6ab9c20b7,2022-04,Northumbria Police,Northumbria Police,-1.673395,54.957798,On or near Parking Area,E01008556,Gateshead 009A,Investigation complete; no suspect identified,,
4ea6848d9fe87bc68c978e27be9338b19c1b2e61db3637ea7465ea395a28e4f0,2022-04,Northumbria Police,Northumbria Police,-1.673395,54.957798,On or near Parking Area,E01008429,Gateshead 009A,Suspect charged,,
e2a8e0ce75cb2f1544cec9a24f578d519434d4fbd9c09892d767b27a7d99edfa,2022-04,Northumbria Police,NorthumbriaP olice,-1.452186,54.888311,On or near KIRKWOOD AVENUE,E01027417,Sunderland 021F,Investigation complete; no suspect identified,,
01026c4d315be204b3bdbc13402041b355a84ea864bc4c8009c3e10056b1d68e,2022-04,Northumbria Police,Northumbria Police,-1.548304,54.965351,On or near BURWOOD CLOSE,E01008427,Gateshead 008C,Investigation complete; no suspect identified,,
b83369c86939e9baeb135adf871b76bc733d433e38482e487893ef8682b0fd96,2022-04,Northumbria Police,Northumbria Police,-1.515422,55.126572,On or near Parking Area,E01008259,Northumberland 023B,Investigation complete; no suspect identified,,
b83369c86939e9baeb135adf871b76bc733d433e38482e487893ef8682b0fd96,2022-04,Norhumbria Police,Northumbria Police,-1.405355,54.879887,On or near DENE STREET,E01008170,Sunderland 026E,Investigation complete; no suspect identified,,
c3abeb821539518dba5bb6126b458da381d136f59db73fef5c3b1c8e07b1a508,2022-04,Northumbria Police,Northumbria Police,-1.377594,54.880053,On or near SANDMERE ROAD,E01008556,Sunderland 024D,Investigation complete; no suspect identified,,
9987f095bef6845168544464b1f872914bc89399b395e2230af76569a29a83eb,2022-04,Northumbria Police,Northumbria Police,-1.611983,54.97347,On or near HOOD STREET,E01027542,Newcastle upon Tyne 024G,Investigation complete; no suspect identified,,
c2365270c697b132c53fb7e908aa250529a9c9d219a9afe9e0210f428908d09f,2022-04,Northumbria Police,Northumbria Police,-1.565568,55.176112,On or near TITCHFIELD TERRACE,E01027537,Gateshead 015D,Investigation complete; no suspect identified,,
ac40f498d09480a76d8c064b65a24875c6c4e395ecb77fe3e75634db5eeba4b8,2022-04,Northumbria Police,Northumbria Police,-1.565568,55.176112,On or near TITCHFIELD TERRACE,E01027537,Newcastle upon Tyne 024E,Investigation complete; no suspect identified,,
235366b3274659109506347e42ad64ebbb95c1d15764e02c2b9ff9060592ebbf,2022-04,Northumbria Police,Northumbria Police,-1.853279,54.960799,On or near LOCOMOTIVE COURT,E01027417,Northumberland 038D,Investigation complete; no suspect identified,,
4ea6848d9fe87bc68c978e27be9338b19c1b2e61db3637ea7465ea395a28e4f0,2022-04,Northumbria Police,Northumbria Police,-1.853279,54.960799,On or near LOCOMOTIVE COURT,E01008259,Northumberland 038D,Investigation complete; no suspect identified,,
f72c1da12945ecc70701ed5935be47b5f3adb63fdb77be4aa8521ad8c409b6db,2022-04,Northumbria Police,Northumbria Police,-1.647526,55.031943,On or near BRUNTON LANE,E01008831,Newcastle upon Tyne 001D,Suspect charged,,
2f78d6311b329d53e7e7685f8cd7839cd1863ed33f0468120034bfec298df4d7,2022-04,Northumbria Police,Northumbria Police,-1.442743,55.017897,On or near Sports/Recreation Area,E01008546,North Tyneside 017D,Investigation complete; no suspect identified,,
d278d16d3e5227431b71ec14f54a2180df24325a4616d19c1f879b9b38a4b1ae,2022-04,Northumbria Police,Northumbria Police,-1.585991,54.976188,On or near Paking Area,E01008242,Newcastle upon Tyne 026C,Invesigation complete; no suspect identified,,
b9543ad25a686fa02da1bd5ea9af2d62dfff0f65013fecd0347c9e3af3a36fe4,2022-4,Northumbria Police,Northumbria Police,-1.662264,54.990927,On or near COTTAGE LANE,E01008300,Newcastle upon Tyne 016A,Investigation complete; no suspect identified,,
b9543ad25a686fa02da1bd5ea9af2d62dfff0f65013fecd0347c9e3af3a36fe4,2022-04,Northumbria Police,Northumbria Police,29.337736,54.990927,On or nar COTTAGE LANE,Em01008300,Newcastle upon Tyne 01A6,Investigation complete; no suspect identified,,
1b37ed5f2763e3115900456459912a7c268c4e181f216b7b4c4d8ef6ab9c20b7,2022-04,Northumbria Police,Northumbria Police,-1.417954,54.866567,On or near ASPEN COURT,E01008802,Gateshead 027C,Investigation complete; no suspect identified,,
fc9b992a723333ee04b7bd94d94528816eefe9537b4a43368b206009e7a626a4,2022-04,Northumbria Police,Northumbria Police,-1.433719,55.000107,On or near MIqLE END ROAD,E01006867,South Tneside 002D,Investigation complete; no suspect identified,,
fc9b992a723333ee04b7bd94d94528816eefe9537b4a43368b206009e7a626a4,2022-04,Northumbria Police,Northumbria Police,16.566281,55.000107,On or near MILE ED ROAD,E01008667,South Tyneside 002D,Investigation complete; no suspect identified,,
fc9b992a723333ee04b7bd94d94528816eefe9537b4a43368b206009e7a626a4,2022-04,Northumbria Police,Northumbria Police,92.566281,55.000107,On or near MILE END ROAD,E01n008667,oSuth Tyneside 002D,Investigation complete; no suspect identified,,
6c5cdd0073dc369a175e79d63ae2dfc4537566e69edb7645d157bcd0980479df,2022-04,Northumbria Police,Northumbria Police,-1.422451,55.016266,On or near Sports/Recreation Area,E01008170,North Tyneside 016A,Investigation complete; no suspect identified,,
6ff0b1faf82304fe397b9730680bb4421eea532879a522e6969fd97bd9b800b0,2022-04,Northumbria Police,Northumbria Police,-1.370427,54.896938,On or near TOWER PLACE,E01008736,Newcastle upon Tyne 030B,Investigation complete; no suspect identified,,
8dc0b4783d57f7994099c9532cc940f7cc2ba98a6f14d2b8a2015a23f7149377,2022-04,Northumbria Police,Northumbria Police,-1.680007,55.000249,On or near Police Station,E01008170,Newcastle upon Tyne 011C,Investigation complete; no suspect identified,,
ac40f498d09480a76d8c064b65a24875c6c4e395ecb77fe3e75634db5eeba4b8,2022-04,Northumbria Police,orthumbria Police,-1.583112,54.946415,O nor near ROMNEY GARDENS,E01008202,Gateshead 011C,Investigation complete; no suspect identified,,
aa45a51179344a76530c4c7fd62eb31beb0ae4e4e7f8d5e71a7f0b02ca441e11,2022-04,Northumbria Police,Northumbria Police,-1.370427,54.896938,On or near TOWER PLACE,E01008736,Sunderland 016C,Investigation complete; no suspect identified,,
b83369c86939e9baeb135adf871b76bc733d433e38482e487893ef8682b0fd96,2022-04,Northumbria Police,Northumbria Police,-1.370427,54.896938,On or near TOWER PLACE,E01027519,Sunderland 016C,Investigation complete; no suspect identified,,
62bc86b1d20f99b9279a02d4678c38c36fa46ea5f708628723442d586197aa43,2022-04,Northumbria Police,Northumbria Police,-1.370427,54.896938,On or near TOWER PLACE,E01008170,Sunderland 016C,Investigation complete; no suspect identified,,
aa45a51179344a76530c4c7fd62eb31beb0ae4e4e7f8d5e71a7f0b02ca441e11,2022-04,Northumbria Police,Northumbria Police,68.629573,54.896938,On ro near TOWER PLACE,E0100836,Sundserland 016C,Investigation complete; no suspect identified,,
9aa71c45b22d29479cfafbfa38ca169bde323a337ed7b4657ba3b9f54697d632,2022-04,Northumbria Police,Northumbria Police,-1.520254,55.131623,On or near LIMES AVENUE,E01027539,Northumberland 022C,Investigation complete; no suspect identified,,
d278d16d3e5227431b71ec14f54a2180df24325a4616d19c1f879b9b38a4b1ae,2022-04,Northumbria Police,Northumbrnia Police,-1.537481,54.916335,On or near LONDON AVENUE,E01008878,Sunderland 013D,Investigation complete; no suspect identified,,
f72c1da12945ecc70701ed5935be47b5f3adb63fdb77be4aa8521ad8c409b6db,2022-40,Northumbria Police,Northumbria Police,-1.510937,54.962079,On or near MEDWA AVENUE,E01027519,South Tyneside 015B,Investigation complete; no suspect identified,,
2f28ad1c2acc3f1056a46a9f28fae19463899e1288abbd18d8c417cd1dcdabb3,222-04,Northumbria Police,Northumbria Police,-1.669558,55.001021,On or near CRELAND WAY,E01027519,Newcastle upon Tyne 011A,Investigation complete; no suspect identified,,
6ff0b1faf82304fe397b9730680bb4421eea532879a522e6969fd97bd9b800b0,2022-04,Northmbria Police,Northurmbria Police,-1.604018,54.96045,On orn ear REGENT TERRACE,E01008170,Gateshead 027D,Investigation complete; no suspect identified,,
c2365270c697b132c53fb7e908aa250529a9c9d219a9afe9e0210f428908d09f,2022-04,NorthumbriaP olice,Northumbria Police,-1.614472,54.971249,On or near BIGG MARKET,E01008170,Newcastle upon Tyne 024G,Investigationc omplete; no suspect identified,,
266a51fa0b0ff528613cbdca3e3ea4769a2165ef886cd0391321234b82d51ed9,2022-04,Northumbria Police,Northumbri Police,-1.614472,54.971249,On or near BIGG MARKET,E01033543,Newcastle upon Tyne 024G,Investigation complete; no suspect identified,,
266a51fa0b0ff528613cbdca3e3ea4769a2165ef886cd0391321234b82d51ed9,2022-04,Northumbria Police,Northumbria Police,52.385528,54.971249,n or near BIGG MARKET,E01r033543,Newcastnle upon Tyne 024G,Investigation complete; no suspect identified,,
becbbd18d60ac910efbc4e2caee9c473005788446bac34615f1c6ad1f488a3e1,2022-04,Northumbria Police,Northumbria Polibce,-1.638681,54.968232,On or near BRISTOL TERRACE,E01008438,Newcastle upon Tyne 004E,Investigation complete; no suspect identified,,
f72c1da12945ecc70701ed5935be47b5f3adb63fdb77be4aa8521ad8c409b6db,2022-04,Northumbria Police,Northumbria Police,-1.498565,54.898235,On or near BARNINGHAM,E01008639,Sunderland 017D,Investigation complete; no suspect identified,,
b83369c86939e9baeb135adf871b76bc733d433e38482e487893ef8682b0fd96,2022-04,Northumbria Police,Northumbia Police,-1.537017,54.940408,On or near ALDERWYK,E01008284,Gateshead 014B,Offender given a caution,,
bae5ae05e33af4c79ae2c269bab77a7fa66f5f303818cc63e0409c56ceb440b1,2022-04,Northumbria Police,Northumbria Police,-1.537017,54.940408,On or near ALDERWYK,E01008284,Gateshead 008C,Offender given a caution,,
d278d16d3e5227431b71ec14f54a2180df24325a4616d19c1f879b9b38a4b1ae,2022-04,Northumbria Police,Northumbria Police,-1.380861,54.904881,On or near Further/Higher Educational Building,E01008242,Sunderland 013B,Investigation complete; no suspect identified,,
becbbd18d60ac910efbc4e2caee9c473005788446bac34615f1c6ad1f488a3e1,2022-04,Northumbria Polie,Northumbria Police,-1.380861,54.904881,On or near Further/Higher Educational Building,E01008242,Sunderland 013B,Investigation complete; no suspect identified,,
f72c1da12945ecc70701ed5935be47b5f3adb63fdb77be4aa8521ad8c409b6db,2022-04,wNorthumbria Police,Northumbria Police,-1.380861,54.904881,On or near Further/Higher Educational Building,E01008546,Sunderland 013B,Investigation complete; no suspect identified,,
c2365270c697b132c53fb7e908aa250529a9c9d219a9afe9e0210f428908d09f,2022-04,Northumbria Police,Northumbria Police,-1.380861,54.904881,On or near Further/Higher Educational Building,E01008703,Sunderland 013D,Investigation complete; no suspect identified,,
6c5cdd0073dc369a175e79d63ae2dfc4537566e69edb7645d157bcd0980479df,2022-04,Northumbria Police,Northumbria Police,-1.380861,54.904881,On or near Further/Higher Educational Building,E01027417,Sunderland 013B,Investigation complete; no suspect identified,,
f72c1da12945ecc70701ed5935be47b5f3adb63fdb77be4aa8521ad8c409b6db,2022-04,Northumbria Police,Northumbria Police,-1.652141,54.97413,On or near NORMOUNT AVENUE,E01008335,Sunderland 005D,Investigation complete; no suspect identified,,
2f78d6311b329d53e7e7685f8cd7839cd1863ed33f0468120034bfec298df4d7,2022-04,NorthumbriaP olice,Northumbria Police,-1.620821,54.968906,On or near FORTH PLACE,E01008216,Newcastle upon Tyne 024H,Offender given a cautwion,,
a9ab878db3664172a20d1cd90681ea39ec66790b411dddfefce800cc98c66a63,2022-04,Northumbria Police,Northumbria Police,-1.620821,54.968906,On or near FORTH PLACE,E01008170,Newcastle upon Tyne 024H,Offender given a caution,,
6c5cdd0073dc369a175e79d63ae2dfc4537566e69edb7645d157bcd0980479df,2022-04,Northumbria Police,Northumbria Police,-1.420391,54.995291,On or near BALTIC COUTR,E01008639,South Tyneside 001C,Investigation cogmplete; no suspect identified,,
7dd3b60040125004ed0ee9fb39c0589b6b2747ae2453a7ddb5a36df4e57e3a38,2022-04,Northumbria Police,Northumbria Police,-1.497293,54.84263,On or near FRONT STREET,E01008755,Sunderland 024C,Investigation complete; no suspect identified,,
d278d16d3e5227431b71ec14f54a2180df24325a4616d19c1f879b9b38a4b1ae,2022-04,Northumbria Police,Northumbria Police,-1.466705,54.970502,On or near DUNSTANBURGH COURT,E01008601,Newcastle upon Tyne 021C,Suspect cahrged,,
dc6464f13801cb3f514d855b9b6ec13c83e9e86e6e65a8d76eca34f85525b918,2022-04,NorthumbriaP olice,Northumbria Police,-1.667359,55.017441,O nor near COURTNEY COURT,E01008312,Newcastle upon Tyne 001F,Investigation complete; no suspect identified,,
c2365270c697b132c53fb7e908aa250529a9c9d219a9afe9e0210f428908d09f,2022-04,Northumbria Police,Northumbria Police,-1.667359,55.017441,On or near COURTNEY COURT,E01027417,Newcastle upon Tyne 001F,Investigation complete; no suspect identified,,
c2365270c697b132c53fb7e908aa250529a9c9d219a9afe9e0210f428908d09f,2022-04,Northumbria Police,Northumbria Police,-1.667359,55.017441,On or near COURTNEY COURT,E01008831,Newcastle upon Tyne 001F,Investigation complete; no suspect identified,,
dc6464f13801cb3f514d855b9b6ec13c83e9e86e6e65a8d76eca34f85525b918,2022-04,Nortuhmbria Police,Northumbria Police,78.332641,55.017441,On or near COURTNEY COURT,E00108312,Newcastle upon yTne 001F,Investigation complete; no suspect identified,,
2f28ad1c2acc3f1056a46a9f28fae19463899e1288abbd18d8c417cd1dcdabb3,2022-04,Northumbria Police,Northumbria Police,-1.438708,54.809294,On or near PEMBERTON BANK,E01008744,Gateshead 027C,Investigation complete; no suspect identified,,
4ea6848d9fe87bc68c978e27be9338b19c1b2e61db3637ea7465ea395a28e4f0,2022-04,Northumbria Police,Northumbria Police,-1.438708,54.809294,On or near PEMBERTON BANK,E01008556,Sunderland 036B,Investigation complete; no suspect identified,,
8dc0b4783d57f7994099c9532cc940f7cc2ba98a6f14d2b8a2015a23f7149377,2022-04,Northumbria Police,Northumbria Police,-1.500035,54.905502,On or near SUNDERLAND HIGHWAY,E01008850,Northumberland 030A,Investigation complete; no suspect identified,,
01026c4d315be204b3bdbc13402041b355a84ea864bc4c8009c3e10056b1d68e,2022-04,Northumbria Police,Northumbria Police,-1.500035,54.905502,On or near SUNDERLAND HIGHWAY,E01008850,Newcastle upon Tyne 024H,Investigation complete; no suspect identified,,
4ea6848d9fe87bc68c978e27be9338b19c1b2e61db3637ea7465ea395a28e4f0,2022-04,Northumbria Police,Northumbria Police,-1.395541,54.900408,On or near BEECHWOOD STREET,E01008835,Gateshead 008C,Investigation complete; no suspect identified,,
12b9244c80daf9164163573a529e4e37bf83db49a540edd5e7d69e05a843ad0c,2022-04,Northumbria Police,Northumbria Police,-1.563452,55.036209,On or near STRATFORD CLOSE,E01008216,North Tyneside 012B,Investigation complete; no suspect identified,,
f72c1da12945ecc70701ed5935be47b5f3adb63fdb77be4aa8521ad8c409b6db,2022-04,Northumbria Police,Northumbria Police,-1.563452,55.036209,On or near STRATFORD CLOSE,E01008425,North Tyneside 012B,Investigation complete; no suspect identified,,
ac40f498d09480a76d8c064b65a24875c6c4e395ecb77fe3e75634db5eeba4b8,2022-04,Northumbria Police,Northumbria Police,-1.615745,54.9508,On or near SALTWELL PLACE,E01008170,Gmateshead 008C,Investigation complete; no suspect identified,,
fd15e86f920e5133b43919e181a6cef71f07bf04b1bf282b1732d2d33b3533c8,2022-04,Northumbria Police,Northumbria Police,-1.587642,54.924828,On or near GREYSTOKE GARDENS,E01008192,Gateshead 023D,Suspect charged,,
f72c1da12945ecc70701ed5935be47b5f3adb63fdb77be4aa8521ad8c409b6db,2022-04,Northumbria Police,Northumbria Poliec,-1.6116,54.972624,On or near SHAKESPEARE STREET,E01027542,Newcastle upon Tyne 024G,Investigation complete; no suspect identified,,
d278d16d3e5227431b71ec14f54a2180df24325a4616d19c1f879b9b38a4b1ae,2022-04,Northumbria Police,Northumbria Police,-2.092545,54.966729,On or near ABBEY VIEW,E01027519,Northumberland 035F,Offender given a drugs possession warning,,
6ff0b1faf82304fe397b9730680bb4421eea532879a522e6969fd97bd9b800b0,2022-04,Northumbria Police,Northumbri Police,-1.391179,54.90842,On or near Parking Area,E01027519,Sunderland 013A,Investigation complete; no suspect identified,,
6ff0b1faf82304fe397b9730680bb4421eea532879a522e6969fd97bd9b800b0,2022-04,Northumbriae Police,Northumbria Police,-1.465899,55.068943,On or near BLYTH ROAD,E01008170,North Tyneside 001D,Investigation complete; no suspect identified,,
c2365270c697b132c53fb7e908aa250529a9c9d219a9afe9e0210f428908d09f,2022-04,Northumbria Police,Northumbria Police,-1.465899,55.068943,On or near BLYTH ROAD,E01008551,Gateshead 007D,Investigation complete; no suspect identified,,
6c5cdd0073dc369a175e79d63ae2dfc4537566e69edb7645d157bcd0980479df,202-04,Northumbria Police,Northumbria Police,-1.372547,54.896949,On or near HENDON BURN AVENUE WEST,E01008300,Sunderland 016B,Investigation complete; no suspect identified,,
6c5cdd0073dc369a175e79d63ae2dfc4537566e69edb7645d157bcd0980479df,2022-04,Northumbria Police,Northumbria Police,-1.403189,54.901003,On or near WOLSELEY TERRACE,E01008546,Sunderland 018C,Suspect charged,,
8dc0b4783d57f7994099c9532cc940f7cc2ba98a6f14d2b8a2015a23f7149377,2022-04,Northumbria Police,Northumbria Police,-1.626074,54.971708,On or near CROSS VILLA PLACE NO 3,E01033554,Newcastle upon Tyne 003C,Investigation complete; no suspect identified,,
c2365270c697b132c53fb7e908aa250529a9c9d219a9afe9e0210f428908d09f,2022-04,Northumbria Police,Northumbria Police,-1.428188,55.018575,On or near MANOR ROAD,E01008560,South Tyneside 012C,Investigation complete; no suspect identified,,
6ff0b1faf82304fe397b9730680bb4421eea532879a522e6969fd97bd9b800b0,2022-04,Northumbria Police,Northumbria Police,-2.113947,54.973486,On or near GLEN TERRACE,E01027417,Northumberland 035E,Investigation complete; no suspect identified,,
c2365270c697b132c53fb7e908aa250529a9c9d219a9afe9e0210f428908d09f,2022-04,Northumbria Police,Northumbria Police,-1.430044,55.016769,On or near BACK SHIPLEY ROAD,E01008558,Newcastle upon Tyne 016A,Investigation complete; no suspect identified,,
6c5cdd0073dc369a175e79d63ae2dfc4537566e69edb7645d157bcd0980479df,2022-04,Northumbria Police,Northumbria Police,-1.430044,55.016769,On or near BACK SHIPLEY ROAD,E01008558,Gateshead 008C,Investigation complete; no suspect identified,,
d2d79084528fb5a07ad52dc8f99af52e1175ea8685184a2848b81715e1209f0c,2022-04,Northumbria Police,Northumbria Police,-1.731374,54.953564,On or near Sports/Recreation Area,E01008429,Gateshead 005E,Investigation complete; no suspect identified,,
62bc86b1d20f99b9279a02d4678c38c36fa46ea5f708628723442d586197aa43,2022-04,Northumbria Police,Northumbria Police,-1.615322,54.972222,On or near NUN STREET,E01008216,Newcastle upon Tyne 024G,Suspect charged,,
d2d79084528fb5a07ad52dc8f99af52e1175ea8685184a2848b81715e1209f0c,2022-04,Northumbria Police,Northumbria Police,-1.45055,55.026829,On or near LONGTHORPE CLOSE,E01008170,North Tyneside 013B,Investigation complete; no suspect identified,,
6c5cdd0073dc369a175e79d63ae2dfc4537566e69edb7645d157bcd0980479df,2022-04,Northumbria Police,Northumbria Police,-1.646072,55.010543,On or near MLINE WAY,E01008546,Newcastle upon Tyne 003E,Investigation complete; no suspect identified,,
62bc86b1d20f99b9279a02d4678c38c36fa46ea5f708628723442d586197aa43,2022-04,Northumbria Police,Northumbria Police,-1.617388,54.975131,On or near PERCY STREET,E01008259,Newcastle upon Tyne 024C,Investigation complete; yno suspect identified,,
c2365270c697b132c53fb7e908aa250529a9c9d219a9afe9e0210f428908d09f,2022-04,Northumbria Police,Northumbria Police,-1.60974,54.969527,n or near SIDE,E01033543,Newcastle upon Tyne 0o24G,Investigation complete; no suspect identified,,
1b37ed5f2763e3115900456459912a7c268c4e181f216b7b4c4d8ef6ab9c20b7,2022-04,Northumbria Police,Northumbria Police,-1.439249,54.985845,On or near ELIZABETH DIAMOND GARDENS,E01027519,South Tyneside 002C,Offender given penalty notice,,
4f264781c098e9b903a8449ebd095a1657fb40728b14700cfc4c02cfb8595405,2022-04,Northumbria Police,Northumbria Police,-1.44071,54.962738,On or near DICKENS AVENUE,E01008242,South Tyneside 016E,Investigation complete; no suspect identified,,
b83369c86939e9baeb135adf871b76bc733d433e38482e487893ef8682b0fd96,2022-04,Northumbria Police,Northumbria Police,-1.458105,55.000137,On or near Pedestrian Subway,E01008545,Gateshead 008C,Investigation complete; no suspect identified,,
6c5cdd0073dc369a175e79d63ae2dfc4537566e69edb7645d157bcd0980479df,2022-04,Northumbria Police,Northumbria Police,-1.617241,54.969164,On or near NEVILLE STREET,E01033545,Newcastle upon Tyne t024H,Investigation complete; no suspect identified,,
c2365270c697b132c53fb7e908aa250529a9c9d219a9afe9e0210f428908d09f,2022-04,Northumbria Police,Northumbria Police,-1.581001,54.958791,On or near MARIGOLD AVENUE,E01008214,Gateshead 003A,Investigation complete; no suspect identified,,
1b37ed5f2763e3115900456459912a7c268c4e181f216b7b4c4d8ef6ab9c20b7,2022-04,Northumbria Polce,Northumbria Police,-1.47006,54.841283,On or near DURHMA ROAD,E01008259,Sunderland 034F,Investigation complete; no suspect identified,,
f72c1da12945ecc70701ed5935be47b5f3adb63fdb77be4aa8521ad8c409b6db,2022-04,Northumbria Police,Northumbria Police,-1.647625,55.009972,On or near AMBRIDGE WAY,E01008429,Newcastle upon Tyne 003E,Investigation complete; no suspect identified,,
c2365270c697b132c53fb7e908aa250529a9c9d219a9afe9e0210f428908d09f,2022-04,Northumbria Police,Northumbria Police,-1.603476,54.956827,On or near PRINCE CONSORT ROAD,E01008546,Gateshead 027D,Offender given a drugs possession warning,,
6ff0b1faf82304fe397b9730680bb4421eea532879a522e6969fd97bd9b800b0,2022-04,Northumbria Police,Northumbria Police,-1.529767,55.112205,On or near CARR STREET,E01027427,Northumberland 020D,Investigation complete; no suspect identified,,
6ff0b1faf82304fe397b9730680bb4421eea532879a522e6969fd97bd9b800b0,2022-04,Norhtumbria Police,Northumbria Police,-1.38721,54.976634,On or near PRINCE EDWARD ROAD EAST,E01008637,Sunderland 013D,Suspect charged,,
b83369c86939e9baeb135adf871b76bc733d433e38482e487893ef8682b0fd96,2022-04,Northumbria Police,Northumbria Police,-1.415262,54.905088,On or near ARLINGTON STREET,E01008216,Sunderland 015A,Investigation complete; no suspect identified,,
8dc0b4783d57f7994099c9532cc940f7cc2ba98a6f14d2b8a2015a23f7149377,2022-04,Northumbria Police,Northumbria Police,-1.616721,54.974644,On or near Shopping Area,E01008216,Newcastle upon Tyne 024C,Investigation complete; no suspect identified,,
01026c4d315be204b3bdbc13402041b355a84ea864bc4c8009c3e10056b1d68e,202-04,Northumbria Police,Northumbria Police,-1.381452,54.920233,On or near EDGEWORTH CRESCENT,E01008170,Sunderland 006B,Investigation complete; no suspect identified,,
fd15e86f920e5133b43919e181a6cef71f07bf04b1bf282b1732d2d33b3533c8,2022-04,Northumbria Police,Northumbria Police,-1.69283,54.93816,On or nea rSupermarket,E01008271,North Tyneside 013C,Investigation complete; no suspect identified,,
6c5cdd0073dc369a175e79d63ae2dfc4537566e69edb7645d157bcd0980479df,2022-04,Northumbria Police,Northumbria Police,-1.56687,55.183494,On or near WOODHORN ROAD,E01008546,Northumberland 010A,Suspect charged,,
8dc0b4783d57f7994099c9532cc940f7cc2ba98a6f14d2b8a2015a23f7149377,2022-04,Northumbria Police,Northumbria Police,-1.684328,55.007377,On or near HOPTON COURT,E01008216,Newcastle upon Tyne 004E,Investigation complete; no suspect identified,,
6ff0b1faf82304fe397b9730680bb4421eea532879a522e6969fd97bd9b800b0,0222-04,Northumbria Police,Northumbria Police,-1.479058,54.845097,On or near LYEBURN GROVE,E01027519,Sunderland 033D,Suspect charged,,
1b37ed5f2763e3115900456459912a7c268c4e181f216b7b4c4d8ef6ab9c20b7,2022-04,Northubmria Police,Northumbria Police,-1.601868,54.95683,On or near DENMARK STREET,E01008170,Gateshead 027D,Suspect charged,,
4ea6848d9fe87bc68c978e27be9338b19c1b2e61db3637ea7465ea395a28e4f0,2022-04,Northumbria Police,Northumbria Police,-1.620304,54.967349,On or near Nightclub,E01033545,Northumberland 030A,Investigation complete; no suspect identified,,
ac40f498d09480a76d8c064b65a24875c6c4e395ecb77fe3e75634db5eeba4b8,2022-04,Northumbria Police,Northumbria Police,-1.575771,54.899266,On or near MOUNT PLEASANT,E01008639,Gateshead 026C,Investigation complete; no suspect identified,,
f72c1da12945ecc70701ed5935be47b5f3adb63fdb77be4aa8521ad8c409b6db,2022-04,Northumbria Police,Northumbria Police,-1.611977,54.974045,On or near hShopping Area,E01008242,Newcastle upon Tyne 024G,Investigation complete; no suspect identified,,
9987f095bef6845168544464b1f872914bc89399b395e2230af76569a29a83eb,2022-04,Northumbria Police,Northumbria Police,-1.646072,55.010543,On or near MILNE WAY,E01008340,Newcastle upon Tyne 003E,Investigation complete; no suspect identified,,
235366b3274659109506347e42ad64ebbb95c1d15764e02c2b9ff9060592ebbf,2022-04,Northumbria Police,Northumbria Police,-1.612134,54.977199,On or near RIDLEY PLACE,E01008556,Newcastle upon Tyne 024C,Suspect charged,,
f72c1da12945ecc70701ed5935be47b5f3adb63fdb77be4aa8521ad8c409b6db,2022-04,Northumbria Police,Northumbria Police,-1.837955,54.961786,On or near WEST WYLAM DRIVE,E01008170,Northumberland 038B,Suspect charged,,
8dc0b4783d57f7994099c9532cc940f7cc2ba98a6f14d2b8a2015a23f7149377,2022-04,Northumbria Police,Northumbria Police,-1.621803,54.957487,On or near MORRISON STREET,E01008170,Gateshead 007C,Investigation complete; no suspect identified,,
becbbd18d60ac910efbc4e2caee9c473005788446bac34615f1c6ad1f488a3e1,2022-04,Northumbria Police,Northumbria Police,-1.580218,55.13419,On or near WOOD LANE,E01027519,South Tyneside 009A,Suspect charged,,
d278d16d3e5227431b71ec14f54a2180df24325a4616d19c1f879b9b38a4b1ae,2022-04,Northumbria Police,Northumbria Police,-1.419874,54.979149,On or near STANTONg AVENUE,E01008831,South Tyneside 005B,Investigation complete; no suspect identified,,
2f28ad1c2acc3f1056a46a9f28fae19463899e1288abbd18d8c417cd1dcdabb3,2022-04,Northumbria Police,Northumbria Police,-1.555081,55.181627,On or near BERRYMOOR,E01008831,Northumberland 013B,Investigation complete; no suspect identified,,
62bc86b1d20f99b9279a02d4678c38c36fa46ea5f708628723442d586197aa43,2022-04,Northumbria Police,Northumbria Police,-1.657659,55.021539,On or near HEPBURN AVENUE,E01008831,Newcastle upon Tyne 001E,Investigation complete; no suspect identified,,
c2365270c697b132c53fb7e908aa250529a9c9d219a9afe9e0210f428908d09f,2022-04,Northumbria Police,Northumbria Police,-1.675016,54.985291,On or ear NURSERY GARDENS,E01008259,Newcastle upon Tyne 019B,Investigation complete; no suspect identified,,
62bc86b1d20f99b9279a02d4678c38c36fa46ea5f708628723442d586197aa43,2022-04,Northumbria Police,Northumbria Police,-2.435712,55.182225,On or near HAWKHOPE HILL,E01008338,Northumberland 019C,Investigation complete; no suspect identified,,
ff9601abf2b70e9e9c6a2694766a9c895777babbb8458e68125984a567581353,2022-04,Northumbria Police,Northumbria Police,-1.585114,54.950637,On or near SPLIT CROW ROAD,E01027542,Gateshead 011D,Investigation complete; no suspect identified,,
a9ab878db3664172a20d1cd90681ea39ec66790b411dddfefce800cc98c66a63,2022-04,Northumbria Police,Northumbria Police,-1.507872,54.954743,On or near BLUE SKY WAY,E01008629,Northumberland 020D,Investigation complete; no suspect identified,,
d278d16d3e5227431b71ec14f54a2180df24325a4616d19c1f879b9b38a4b1ae,2022-04,Northumbria Police,Northumbria Police,-1.503952,55.010586,On or naer MIDDLE ENGINE LANE,E01008468,Newcastle upon Tyne 024E,Suspect charged,,
b83369c86939e9baeb135adf871b76bc733d433e38482e487893ef8682b0fd96,2022-04,Northumbria Policde,Northumbria Police,-1.534366,54.907822,On or near Parking Area,E01008874,South Tyneside 009A,Investigation complete; no suspect identified,,
235366b3274659109506347e42ad64ebbb95c1d15764e02c2b9ff9060592ebbf,2022-04,Northumbria Police,Northumbria Police,-1.492303,54.99696,On or near BOLAM GARDENS,E01008542,Newcastle upon Tyne 024G,Investigation complete; no suspect identified,,
8dc0b4783d57f7994099c9532cc940f7cc2ba98a6f14d2b8a2015a23f7149377,2022-04,Northumbria Police,Northumbri aPolice,-1.524424,54.991716,On or near MYRTLE GROVE,E01008170,North Tyneside 029A,Suspect charged,,
d278d16d3e5227431b71ec14f54a2180df24325a4616d19c1f879b9b38a4b1ae,2022-04,Northumbria Police,Northumbria Police,-1.446021,54.89115,On or near Pedestrian Subway,E01008338,Sunderland 021A,Investigation complete; no suspect identified,,
c2365270c697b132c53fb7e908aa250529a9c9d219a9afe9e0210f428908d09f,2022-04,Northumbria Police,Northumbria Police,-1.592971,54.979617,On or near WARWICK STREET,E01027417,Newcastle upon Tyne 023D,Investigation complete; no suspect identified,,
d2d79084528fb5a07ad52dc8f99af52e1175ea8685184a2848b81715e1209f0c,2022-04,Northumbria Police,Northumbria Police,-1.525893,54.950618,On or near WARDLEY LANE,E01008242,Gateshead 014C,Investigation complete; no suspect identified,,
62bc86b1d20f99b9279a02d4678c38c36fa46ea5f708628723442d586197aa43,2022-04,Northumbria Police,Northumbria Police,-1.38721,54.976634,On or near PRINCE EDWARD ROAD EAST,E01008216,South Tyneside 008D,Investigation complete; no usspect identified,,
58fd1a63e037ca6c5420e04d25ab31f7a3f2eb898b23b35fb5993adf827f60d8,2022-4,NorthumbriaP olice,Northumbria Police,-1.585991,54.976188,On or near Parking Area,E01008639,Newcastle upon Tyne 026C,Investigation complete; no suspect identified,,
b83369c86939e9baeb135adf871b76bc733d433e38482e487893ef8682b0fd96,2022-04,Nrthumbria Police,orthumbria Police,-1.56902,55.138464,On or near JUBILEE MEWS,E01008338,Northumberland 020E,Investigation complete; no suspect identified,,
8dc0b4783d57f7994099c9532cc940f7cc2ba98a6f14d2b8a2015a23f7149377,2022-04,Northumbria Police,Northumbria Police,-1.542376,55.004635,On or near MULLEN ROAD,E01008532,Gateshead 003A,Investigation complete; no suspect identified,,
1b37ed5f2763e3115900456459912a7c268c4e181f216b7b4c4d8ef6ab9c20b7,2022-04,Northumbria Police,Northumbria Police,-1.540989,55.127443,On or near NORDALE WAY,E01008216,Northumberland 022D,Investigation complete; no suspect identified,,
1b37ed5f2763e3115900456459912a7c268c4e181f216b7b4c4d8ef6ab9c20b7,2022-04,Northumbria Police,Northumbria Police,-1.58033,55.329741,On or near MEADOWBURN,E01027539,Northumberland 006B,Investigation complete; no suspect idenqtified,,
4ea6848d9fe87bc68c978e27be9338b19c1b2e61db3637ea7465ea395a28e4f0,2022-04,Northumbria Police,Northumbria Police,-1.581732,54.983084,On or near HEATON ROAD,E01008711,Newcastle upon Tyne 023E,Investigation complete; no suspect identified,,
ac40f498d09480a76d8c064b65a24875c6c4e395ecb77fe3e75634db5eeba4b8,2022-04,Northumbria Police,Northumbria Police,-1.422451,55.016266,On or near Sports/Recreation Area,E01008558,Newcastle upon Tyne 030B,Investigation complete; no suspect identified,,
62bc86b1d20f99b9279a02d4678c38c36fa46ea5f708628723442d586197aa43,2022-04,Northumbria Police,Northumbria oPlice,-1.614102,54.974025,On or near BLACKETT STREET,E01008259,Newcastle upon Tyne 024C,Investigation complete; no suspect identified,,
6c5cdd0073dc369a175e79d63ae2dfc4537566e69edb7645d157bcd0980479df,2022-04,Northumbria Police,Northumbria Police,-1.445488,54.806099,On or near Sports/Recreation Area,E01027539,Sunderland 036B,Investigation complete; no suspect identified,,
ac40f498d09480a76d8c064b65a24875c6c4e395ecb77fe3e75634db5eeba4b8,2022-04,Northumbria Police,Northumbria Police,-1.764819,55.03653,On or near Supermarket,E01033714,Gateshead 008C,Investigation complete; no suspect identified,,
ff9601abf2b70e9e9c6a2694766a9c895777babbb8458e68125984a567581353,2022-04,Northumbria Police,Northumbria Police,-1.648579,55.015367,On or near FERRISDALE WAY,E01008337,Newcastle upon Tyne 003B,Investigation complete; no suspect identified,,
ac40f498d09480a76d8c064b65a24875c6c4e395ecb77fe3e75634db5eeba4b8,2022-04,Northumbria Police,Northumbria Police,-1.648579,55.015367,On or near FERRISDALE WAY,E01027542,Newcastle upon Tyne 003B,Investigation complete; no suspect identified,,
ac40f498d09480a76d8c064b65a24875c6c4e395ecb77fe3e75634db5eeba4b8,20p22-04,Northumbria Police,Northumbria Police,-1.648579,55.015367,On or near FERRISDALE WAY,E01008546,Newcastle upon Tyne 003B,Suspect charged,,
6c5cdd0073dc369a175e79d63ae2dfc4537566e69edb7645d157bcd0980479df,2022-04,Northumbria Police,Northumbria Police,-1.648579,55.015367,On or near FERRISDALE WAY,E01008338,Newcastle upon Tyne 003B,Suspect charged,,
ff9601abf2b70e9e9c6a2694766a9c895777babbb8458e68125984a567581353,2022-04,Northumbria Police,Northumbria Police,64.351421,55.015367,On r near FERRISDALE WAY,E0100837,Newcastle uopn Tyne 003B,Suspect charged,,
62bc86b1d20f99b9279a02d4678c38c36fa46ea5f708628723442d586197aa43,2022-04,Northumbria Police,Northumbria Police,-1.648579,55.015367,On or near FERRISDALE WAY,E01008429,Newcastle upon Tyne 003B,Suspect charged,,
6ff0b1faf82304fe397b9730680bb4421eea532879a522e6969fd97bd9b800b0,2022-04,Northumbria Police,Northumbria Police,-1.648579,55.015367,On or near FERRISDALE WAY,E01008337,Newcastle upon Tyne 003B,Suspect charged,,
c2365270c697b132c53fb7e908aa250529a9c9d219a9afe9e0210f428908d09f,2022-04,Northumbria Police,Northumbria Police,-1.378607,54.898346,On or near MOWBRAY ROAD,E01008735,Gateshead 015D,Investigation complete; no suspect identified,,
b83369c86939e9baeb135adf871b76bc733d433e38482e487893ef8682b0fd96,2022-04,Northumbria Police,Northumbria Police,-1.371414,54.874584,On or near LANSDOWNE,E01008242,Sunderland 028A,Investigation complete; no suspect identified,,
c2365270c697b132c53fb7e908aa250529a9c9d219a9afe9e0210f428908d09f,2022-04,Northumbria Police,Northumbria Police,-1.413322,54.963418,On or near Petrol Station,E01008622,North Tyneside 016B,Investigation complete; no suspect identified,,
8dc0b4783d57f7994099c9532cc940f7cc2ba98a6f14d2b8a2015a23f7149377,2022-04,Northumbria oPlice,Northumbria Police,-1.576942,54.934802,On or near HEDGEHOPE,E01008221,Gateshead 021C,Investigation complete; no suspect identified,,
6ff0b1faf82304fe397b9730680bb4421eea532879a522e6969fd97bd9b800b0,2022-04,Northumbria Police,Northumbria Police,-1.378422,54.930597,On or near THORBURN STREET,E01008726,Newcastle upon Tyne 028D,Investigation complete; no suspect identified,,
1b37ed5f2763e3115900456459912a7c268c4e181f216b7b4c4d8ef6ab9c20b7,2022-04,Northumbria Police,Northumbria Police,-1.565979,54.884691,On or near SCAEFLL,E01008172,Gateshead 026A,Investigation complete; no suspect identified,,
58fd1a63e037ca6c5420e04d25ab31f7a3f2eb898b23b35fb5993adf827f60d8,2022-04,Northumbria Police,Northumbria Police,-1.590412,54.950089,On or near LAMBETH PLACE,E01008639,Gateshead 011D,Investigation complete; no suspect identified,,
ac40f498d09480a76d8c064b65a24875c6c4e395ecb77fe3e75634db5eeba4b8,2022-04,Northumbria Police,Northumbria Police,-1.637015,54.965918,On or near Shopping Area,E01008437,Northumberland 020D,Investigation complete; no suspect identified,,
b83369c86939e9baeb135adf871b76bc733d433e38482e487893ef8682b0fd96,2022-04,Northumbria Police,Northumbria Police,-1.413929,54.891647,nO or near ETTRICK GROVE,E01027519,Sunderland 023D,Investigation complete; no suspect identified,,
2f28ad1c2acc3f1056a46a9f28fae19463899e1288abbd18d8c417cd1dcdabb3,2022-04,Northumbria Police,Northumbria Police,-1.58098,54.977339,On or near EDWIN STREET,E01008303,Newcastle upon Tyne 018A,Investigation complete; no suspect identified,,
